zipcode,place,name1,code1,name2,lat,long,station1_id,station1_name,station1_lat,station1_long,station1_date,station1_prcp,station1_snow,station1_snwd,station1_tmax,station1_tmin,station1_dist,station1_azim,station1_azimdif,station2_id,station2_name,station2_lat,station2_long,station2_date,station2_prcp,station2_snow,station2_snwd,station2_tmax,station2_tmin,station2_dist,station2_azim,station2_azimdif,station3_id,station3_name,station3_lat,station3_long,station3_date,station3_prcp,station3_snow,station3_snwd,station3_tmax,station3_tmin,station3_dist,station3_azim,station3_azimdif
45660.0,Peebles,Ohio,OH,Adams,38.9869,-83.3687,USC00334770,"LUCASVILLE, OH US",38.8845,-82.9955,2018-11-06,32.5,0,0,17.8,6.7,0.005372556280921028,1.9078670685866663,,USC00333758,"HILLSBORO, OH US",39.2334,-83.6091,2018-11-06,30.0,0,0,15.6,10.6,0.005395214172007992,-0.6464740457417065,2.554341114328373,USR0000OCHL,"CHILLICOTHE OHIO, OH US",39.3858,-82.985,2018-11-06,0.0,0,0,17.2,11.1,0.008684088613161162,0.6385406443772037,1.2850146901189103
45693.0,West Union,Ohio,OH,Adams,38.8017,-83.5333,USC00334770,"LUCASVILLE, OH US",38.8845,-82.9955,2018-11-06,32.5,0,0,17.8,6.7,0.007452169963795982,1.372697483591227,,USC00333758,"HILLSBORO, OH US",39.2334,-83.6091,2018-11-06,30.0,0,0,15.6,10.6,0.007604356039366552,-0.1351681594234791,1.507865643014706,USC00313072,"FLAT SPRINGS 1 E, NC US",36.25251,-81.91352,2018-11-06,1.3,0,0,18.9,8.9,0.04981398528448344,2.6661401867507966,2.8013083461742756
45697.0,Winchester,Ohio,OH,Adams,38.9353,-83.6661,USC00333758,"HILLSBORO, OH US",39.2334,-83.6091,2018-11-06,30.0,0,0,15.6,10.6,0.005259814298888518,0.14703244050847114,,USC00334770,"LUCASVILLE, OH US",38.8845,-82.9955,2018-11-06,32.5,0,0,17.8,6.7,0.0091504287562286,1.6641658230873284,1.5171333825788573,USW00093812,"CINCINNATI MUNICIPAL AIRPORT LUNKEN FIELD, OH US",39.106,-84.41609,2018-11-06,5.8,0,0,16.1,6.1,0.010597040259429903,-1.281697712506708,2.9458635355940364
45144.0,Manchester,Ohio,OH,Adams,38.6982,-83.6181,USC00334770,"LUCASVILLE, OH US",38.8845,-82.9955,2018-11-06,32.5,0,0,17.8,6.7,0.009072285594164765,1.2008399637682785,,USC00333758,"HILLSBORO, OH US",39.2334,-83.6091,2018-11-06,30.0,0,0,15.6,10.6,0.009341766574315836,0.013024824303279699,1.1878151394649987,USC00313072,"FLAT SPRINGS 1 E, NC US",36.25251,-81.91352,2018-11-06,1.3,0,0,18.9,8.9,0.04877265743685138,2.6272345243321027,2.614209700028823
45684.0,Stout,Ohio,OH,Scioto,38.6546,-83.209,USC00336781,"PORTSMOUTH SCIOTOVILLE, OH US",38.7569,-82.8872,2018-11-06,23.6,0,0,17.8,4.4,0.004732625427962297,1.18219656734974,,USC00333758,"HILLSBORO, OH US",39.2334,-83.6091,2018-11-06,30.0,0,0,15.6,10.6,0.011469301804625688,-0.491107725364375,1.673304292714115,USC00313072,"FLAT SPRINGS 1 E, NC US",36.25251,-81.91352,2018-11-06,1.3,0,0,18.9,8.9,0.045599681404419015,2.73015340482691,3.221261130191285
45679.0,Seaman,Ohio,OH,Adams,38.9621,-83.5936,USC00333758,"HILLSBORO, OH US",39.2334,-83.6091,2018-11-06,30.0,0,0,15.6,10.6,0.004739725916866192,-0.044224468186756516,,USC00334770,"LUCASVILLE, OH US",38.8845,-82.9955,2018-11-06,32.5,0,0,17.8,6.7,0.00823338922760065,1.7327637648073526,1.7769882329941091,USW00093812,"CINCINNATI MUNICIPAL AIRPORT LUNKEN FIELD, OH US",39.106,-84.41609,2018-11-06,5.8,0,0,16.1,6.1,0.011429918621573776,-1.3447411890210528,3.0775049538284054
45616.0,Blue Creek,Ohio,OH,Adams,38.7776,-83.3302,USC00334770,"LUCASVILLE, OH US",38.8845,-82.9955,2018-11-06,32.5,0,0,17.8,6.7,0.004918232114157291,1.1798673937368003,,USC00333758,"HILLSBORO, OH US",39.2334,-83.6091,2018-11-06,30.0,0,0,15.6,10.6,0.0088086881361699,-0.44231943287762493,1.6221868266144253,USC00313072,"FLAT SPRINGS 1 E, NC US",36.25251,-81.91352,2018-11-06,1.3,0,0,18.9,8.9,0.04823148224567437,2.7153128943264435,3.1576323272040683
45805.0,Lima,Ohio,OH,Allen,40.7399,-84.1459,USC00334551,"LIMA WWTP, OH US",40.7247,-84.1294,2018-11-06,1.8,0,0,12.8,-5.6,0.0003435102060905734,2.453142931529439,,USC00336405,"PANDORA, OH US",40.9462,-83.9614,2018-11-06,0.0,0,0,13.9,5.6,0.004347260558870374,0.593770403974094,1.8593725275553452,USC00331390,"CELINA 3 NE, OH US",40.56899,-84.537,2018-11-06,3.3,0,0,13.3,8.3,0.00597621142690065,-2.0911705958656697,2.6849409998397635
45807.0,Lima,Ohio,OH,Allen,40.7955,-84.1383,USC00334551,"LIMA WWTP, OH US",40.7247,-84.1294,2018-11-06,1.8,0,0,12.8,-5.6,0.001241281859042555,3.046611970390841,,USC00336405,"PANDORA, OH US",40.9462,-83.9614,2018-11-06,0.0,0,0,13.9,5.6,0.003516942719144481,0.7249422027747043,2.321669767616137,USC00338609,"VAN WERT 1 S, OH US",40.8494,-84.5808,2018-11-06,2.5,0,0,12.8,8.3,0.00591956959061095,-1.4086774618906814,2.1336196646653858
45806.0,Lima,Ohio,OH,Auglaize,40.6752,-84.1244,USC00334551,"LIMA WWTP, OH US",40.7247,-84.1294,2018-11-06,1.8,0,0,12.8,-5.6,0.0008664674821847059,-0.07640166033122124,,USW00004850,"LIMA ALLEN CO AIRPORT, OH US",40.70806,-84.0214,2018-11-06,2.3,0,0,14.4,6.1,0.0014788016894303371,1.1719405215703758,1.248342181901597,USC00333915,"HUNTSVILLE 3 N, OH US",40.47996,-83.81278,2018-11-06,7.1,0,0,13.3,8.3,0.00535498362609077,2.258766039255782,1.086825517685406
45801.0,Lima,Ohio,OH,Allen,40.7641,-84.0973,USC00334551,"LIMA WWTP, OH US",40.7247,-84.1294,2018-11-06,1.8,0,0,12.8,-5.6,0.0008081112959393513,-2.588398640997961,,USW00004850,"LIMA ALLEN CO AIRPORT, OH US",40.70806,-84.0214,2018-11-06,2.3,0,0,14.4,6.1,0.0014014917406696835,2.342806465384373,4.931205106382334,USC00336405,"PANDORA, OH US",40.9462,-83.9614,2018-11-06,0.0,0,0,13.9,5.6,0.003649622289375837,0.5131097863742461,1.829696679010127
45817.0,Bluffton,Ohio,OH,Allen,40.879,-83.8914,USC00336405,"PANDORA, OH US",40.9462,-83.9614,2018-11-06,0.0,0,0,13.9,5.6,0.001492660816164739,-0.6664855850668523,,USW00004850,"LIMA ALLEN CO AIRPORT, OH US",40.70806,-84.0214,2018-11-06,2.3,0,0,14.4,6.1,0.003442624217754534,-2.6184523083338678,1.9519667232670155,USW00014825,"FINDLAY AIRPORT, OH US",41.01369,-83.66814,2018-11-06,2.0,0,0,14.4,6.7,0.0037667811216682183,0.8955638425693229,3.5140161509031906
45820.0,Cairo,Ohio,OH,Allen,40.8304,-84.0852,USC00334551,"LIMA WWTP, OH US",40.7247,-84.1294,2018-11-06,1.8,0,0,12.8,-5.6,0.0019350939461107721,-2.834674429471154,,USC00336405,"PANDORA, OH US",40.9462,-83.9614,2018-11-06,0.0,0,0,13.9,5.6,0.00259866168046275,0.6790226823698164,3.5136971118409703,USC00338609,"VAN WERT 1 S, OH US",40.8494,-84.5808,2018-11-06,2.5,0,0,12.8,8.3,0.006552333718464007,-1.5173370464839906,2.196359728853807
45833.0,Delphos,Ohio,OH,Allen,40.8336,-84.3247,USC00334551,"LIMA WWTP, OH US",40.7247,-84.1294,2018-11-06,1.8,0,0,12.8,-5.6,0.003205418796999951,2.2044034692388617,,USC00338609,"VAN WERT 1 S, OH US",40.8494,-84.5808,2018-11-06,2.5,0,0,12.8,8.3,0.003392713988012556,-1.4879645569729203,3.692368026211782,USC00331390,"CELINA 3 NE, OH US",40.56899,-84.537,2018-11-06,3.3,0,0,13.3,8.3,0.005405523659209086,-2.5939206575437543,1.105956100570834
45887.0,Spencerville,Ohio,OH,Allen,40.7038,-84.3413,USC00334551,"LIMA WWTP, OH US",40.7247,-84.1294,2018-11-06,1.8,0,0,12.8,-5.6,0.002826880141674572,1.4401919565926484,,USC00331390,"CELINA 3 NE, OH US",40.56899,-84.537,2018-11-06,3.3,0,0,13.3,8.3,0.003500610925566094,-2.3067692296470623,3.7469611862397105,USC00338609,"VAN WERT 1 S, OH US",40.8494,-84.5808,2018-11-06,2.5,0,0,12.8,8.3,0.004059239116012408,-0.892983501968253,1.4137857276788093
45804.0,Lima,Ohio,OH,Allen,40.7275,-84.089,USC00334551,"LIMA WWTP, OH US",40.7247,-84.1294,2018-11-06,1.8,0,0,12.8,-5.6,0.0005365908480548124,-1.6617661931258787,,USW00004850,"LIMA ALLEN CO AIRPORT, OH US",40.70806,-84.0214,2018-11-06,2.3,0,0,14.4,6.1,0.0009564438170350052,1.933050897486871,3.5948170906127497,USC00336405,"PANDORA, OH US",40.9462,-83.9614,2018-11-06,0.0,0,0,13.9,5.6,0.004172371306222467,0.4149695870545386,1.5180813104323323
45850.0,Harrod,Ohio,OH,Allen,40.7177,-83.9436,USW00004850,"LIMA ALLEN CO AIRPORT, OH US",40.70806,-84.0214,2018-11-06,2.3,0,0,14.4,6.1,0.0010429069394631517,-1.732389233107255,,USC00336405,"PANDORA, OH US",40.9462,-83.9614,2018-11-06,0.0,0,0,13.9,5.6,0.0039949960271815155,-0.05877138699980575,1.6736178461074493,USC00333915,"HUNTSVILLE 3 N, OH US",40.47996,-83.81278,2018-11-06,7.1,0,0,13.3,8.3,0.004496942347678051,2.745086326252144,2.8038577132519498
45830.0,Columbus Grove,Ohio,OH,Putnam,40.9137,-84.0705,USC00336405,"PANDORA, OH US",40.9462,-83.9614,2018-11-06,0.0,0,0,13.9,5.6,0.0015463987262385862,1.194596839332619,,USC00334551,"LIMA WWTP, OH US",40.7247,-84.1294,2018-11-06,1.8,0,0,12.8,-5.6,0.0033891673830558464,-2.9096469428938074,4.104243782226426,USC00338609,"VAN WERT 1 S, OH US",40.8494,-84.5808,2018-11-06,2.5,0,0,12.8,8.3,0.006826673774951896,-1.7330210639067058,1.1766258789871016
45854.0,Lafayette,Ohio,OH,Allen,40.7582,-83.9499,USW00004850,"LIMA ALLEN CO AIRPORT, OH US",40.70806,-84.0214,2018-11-06,2.3,0,0,14.4,6.1,0.0012884089868128233,-2.3170829535014446,,USC00336405,"PANDORA, OH US",40.9462,-83.9614,2018-11-06,0.0,0,0,13.9,5.6,0.003284727896646647,-0.04617051523548339,2.2709124382659613,USC00333915,"HUNTSVILLE 3 N, OH US",40.47996,-83.81278,2018-11-06,7.1,0,0,13.3,8.3,0.005184838319667527,2.7828570565302724,2.8290275717657556
45808.0,Beaverdam,Ohio,OH,Allen,40.8314,-83.9758,USC00336405,"PANDORA, OH US",40.9462,-83.9614,2018-11-06,0.0,0,0,13.9,5.6,0.0020126259761803077,0.09446198906074538,,USW00004850,"LIMA ALLEN CO AIRPORT, OH US",40.70806,-84.0214,2018-11-06,2.3,0,0,14.4,6.1,0.002235479512192767,-2.8683277011212955,2.9627896901820407,USC00338609,"VAN WERT 1 S, OH US",40.8494,-84.5808,2018-11-06,2.5,0,0,12.8,8.3,0.007994564760278672,-1.528037498992446,1.3402902021288496
45810.0,Ada,Ohio,OH,Hardin,40.7709,-83.8154,USW00004850,"LIMA ALLEN CO AIRPORT, OH US",40.70806,-84.0214,2018-11-06,2.3,0,0,14.4,6.1,0.0029366559652855553,-1.9523737336953553,,USC00336405,"PANDORA, OH US",40.9462,-83.9614,2018-11-06,0.0,0,0,13.9,5.6,0.0036159671584999656,-0.5612913112018119,1.3910824224935434,USC00333915,"HUNTSVILLE 3 N, OH US",40.47996,-83.81278,2018-11-06,7.1,0,0,13.3,8.3,0.005077974074603437,3.1347430067532893,3.6960343179551014
44805.0,Ashland,Ohio,OH,Ashland,40.8559,-82.3189,USW00014891,"MANSFIELD LAHM REGIONAL AIRPORT, OH US",40.8204,-82.51769,2018-11-06,3.6,0,0,13.9,4.4,0.002697046977507892,-1.8014615391316016,,USC00339312,"WOOSTER EXPERIMENTAL STATION, OH US",40.7833,-81.9167,2018-11-06,7.6,0,0,15.6,9.4,0.005461333979146414,1.8026487688608746,3.6041103079924763,USC00332044,"DANVILLE 2 W, OH US",40.43894,-82.30423,2018-11-06,9.7,0,0,14.4,9.4,0.007279901203330902,3.1148208809229185,1.312172112062044
44287.0,West Salem,Ohio,OH,Wayne,40.9485,-82.1066,USW00004842,"WOOSTER WAYNE CO AIRPORT, OH US",40.87324,-81.88864,2018-11-06,5.3,0,0,14.4,6.1,0.003160746392408314,1.9981273718165973,,USW00014891,"MANSFIELD LAHM REGIONAL AIRPORT, OH US",40.8204,-82.51769,2018-11-06,3.6,0,0,13.9,4.4,0.005867101613364847,-1.9593970442982513,3.9575244161148486,USW00004849,"ELYRIA LORAIN CO AIRPORT, OH US",41.34628,-82.17885,2018-11-06,2.5,0,0,14.4,7.8,0.007007191661594576,-0.13551521783090334,1.823881826467348
44842.0,Loudonville,Ohio,OH,Ashland,40.6361,-82.2356,USC00332044,"DANVILLE 2 W, OH US",40.43894,-82.30423,2018-11-06,9.7,0,0,14.4,9.4,0.0035594625716658793,-2.8825837924651805,,USC00335297,"MILLERSBURG, OH US",40.5375,-81.9197,2018-11-06,14.0,0,0,15.6,10.0,0.004526911232767695,1.95895709291889,4.84154088538407,USW00014891,"MANSFIELD LAHM REGIONAL AIRPORT, OH US",40.8204,-82.51769,2018-11-06,3.6,0,0,13.9,4.4,0.004926170410096546,-0.8576937968838031,2.816650889802693
44859.0,Nova,Ohio,OH,Ashland,41.0282,-82.3384,USW00014891,"MANSFIELD LAHM REGIONAL AIRPORT, OH US",40.8204,-82.51769,2018-11-06,3.6,0,0,13.9,4.4,0.004329402619610487,-2.562849443869269,,USC00336118,"NORWALK WWTP, OH US",41.26667,-82.61667,2018-11-06,5.6,0,0,14.4,10.6,0.005540575817046507,-0.7193227867880873,1.8435266570811817,USW00004849,"ELYRIA LORAIN CO AIRPORT, OH US",41.34628,-82.17885,2018-11-06,2.5,0,0,14.4,7.8,0.005933901653806111,0.3600333921763351,1.0793561789644224
44866.0,Polk,Ohio,OH,Ashland,40.9343,-82.2126,USW00004842,"WOOSTER WAYNE CO AIRPORT, OH US",40.87324,-81.88864,2018-11-06,5.3,0,0,14.4,6.1,0.004404347914586628,1.8133346863388093,,USW00014891,"MANSFIELD LAHM REGIONAL AIRPORT, OH US",40.8204,-82.51769,2018-11-06,3.6,0,0,13.9,4.4,0.004490189944639824,-2.027690215268235,3.841024901607044,USW00004849,"ELYRIA LORAIN CO AIRPORT, OH US",41.34628,-82.17885,2018-11-06,2.5,0,0,14.4,7.8,0.007204063064859097,0.06142338895033695,2.089113604218572
44840.0,Jeromesville,Ohio,OH,Ashland,40.8134,-82.1861,USC00339312,"WOOSTER EXPERIMENTAL STATION, OH US",40.7833,-81.9167,2018-11-06,7.6,0,0,15.6,9.4,0.0035979725769191505,1.715794799155115,,USW00014891,"MANSFIELD LAHM REGIONAL AIRPORT, OH US",40.8204,-82.51769,2018-11-06,3.6,0,0,13.9,4.4,0.004381567597951729,-1.5410179869921148,3.25681278614723,USC00332044,"DANVILLE 2 W, OH US",40.43894,-82.30423,2018-11-06,9.7,0,0,14.4,9.4,0.006720268416836876,-2.9059133708347007,1.364895383842586
44880.0,Sullivan,Ohio,OH,Ashland,41.0368,-82.2172,USW00004842,"WOOSTER WAYNE CO AIRPORT, OH US",40.87324,-81.88864,2018-11-06,5.3,0,0,14.4,6.1,0.005186982334836906,2.15169850027335,,USW00004849,"ELYRIA LORAIN CO AIRPORT, OH US",41.34628,-82.17885,2018-11-06,2.5,0,0,14.4,7.8,0.005424871325384839,0.0927602847012389,2.058938215572111,USW00014891,"MANSFIELD LAHM REGIONAL AIRPORT, OH US",40.8204,-82.51769,2018-11-06,3.6,0,0,13.9,4.4,0.005474056402627215,-2.330511538683386,2.4232718233846247
44843.0,Lucas,Ohio,OH,Richland,40.7039,-82.4087,USW00014891,"MANSFIELD LAHM REGIONAL AIRPORT, OH US",40.8204,-82.51769,2018-11-06,3.6,0,0,13.9,4.4,0.002492037453919163,-0.6158538158201547,,USC00332044,"DANVILLE 2 W, OH US",40.43894,-82.30423,2018-11-06,9.7,0,0,14.4,9.4,0.0048273683342724815,2.850003250626752,3.4658570664469064,USC00339312,"WOOSTER EXPERIMENTAL STATION, OH US",40.7833,-81.9167,2018-11-06,7.6,0,0,15.6,9.4,0.006651783837954477,1.3581249566006743,1.4918782940260775
44837.0,Greenwich,Ohio,OH,Huron,41.0407,-82.5133,USW00014891,"MANSFIELD LAHM REGIONAL AIRPORT, OH US",40.8204,-82.51769,2018-11-06,3.6,0,0,13.9,4.4,0.003845393694794648,-3.126513468873112,,USC00336118,"NORWALK WWTP, OH US",41.26667,-82.61667,2018-11-06,5.6,0,0,14.4,10.6,0.004171306753426608,-0.33111586106798363,2.7953976078051284,USW00004842,"WOOSTER WAYNE CO AIRPORT, OH US",40.87324,-81.88864,2018-11-06,5.3,0,0,14.4,6.1,0.00873681029477065,1.9083245347764306,2.2394403958444142
44864.0,Perrysville,Ohio,OH,Ashland,40.6606,-82.3213,USW00014891,"MANSFIELD LAHM REGIONAL AIRPORT, OH US",40.8204,-82.51769,2018-11-06,3.6,0,0,13.9,4.4,0.0038109455201264697,-0.7486486731993969,,USC00332044,"DANVILLE 2 W, OH US",40.43894,-82.30423,2018-11-06,9.7,0,0,14.4,9.4,0.0038753119891548346,3.083047152061995,3.831695825261392,USW00054856,"WOOSTER 3 SSE, OH US",40.7641,-81.9104,2018-11-06,6.6,0,0,14.9,7.0,0.0057282652207491114,1.2476328347332688,1.8354143173287263
44638.0,Lakeville,Ohio,OH,Holmes,40.652,-82.1455,USC00335297,"MILLERSBURG, OH US",40.5375,-81.9197,2018-11-06,14.0,0,0,15.6,10.0,0.0035984115570506393,2.158304558522922,,USW00054856,"WOOSTER 3 SSE, OH US",40.7641,-81.9104,2018-11-06,6.6,0,0,14.9,7.0,0.003674620473147698,1.0079794032254656,1.1503251552974563,USC00332044,"DANVILLE 2 W, OH US",40.43894,-82.30423,2018-11-06,9.7,0,0,14.4,9.4,0.004273133841519006,-2.625557058694396,3.633536461919862
44838.0,Hayesville,Ohio,OH,Ashland,40.7731,-82.2624,USW00014891,"MANSFIELD LAHM REGIONAL AIRPORT, OH US",40.8204,-82.51769,2018-11-06,3.6,0,0,13.9,4.4,0.003472621907059814,-1.3293148276557312,,USC00339312,"WOOSTER EXPERIMENTAL STATION, OH US",40.7833,-81.9167,2018-11-06,7.6,0,0,15.6,9.4,0.0045723675163618065,1.5298816238468935,2.8591964515026245,USC00332044,"DANVILLE 2 W, OH US",40.43894,-82.30423,2018-11-06,9.7,0,0,14.4,9.4,0.0058584625042113776,-3.046602827929861,4.5764844517767544
44874.0,Savannah,Ohio,OH,Ashland,40.9653,-82.3652,USW00014891,"MANSFIELD LAHM REGIONAL AIRPORT, OH US",40.8204,-82.51769,2018-11-06,3.6,0,0,13.9,4.4,0.0032316276005882453,-2.4687106108626584,,USC00336118,"NORWALK WWTP, OH US",41.26667,-82.61667,2018-11-06,5.6,0,0,14.4,10.6,0.006212867311183277,-0.5597688840122573,1.9089417268504012,USW00004842,"WOOSTER WAYNE CO AIRPORT, OH US",40.87324,-81.88864,2018-11-06,5.3,0,0,14.4,6.1,0.0064871201756145375,1.8183582242099965,2.378127108222254
44903.0,Mansfield,Ohio,OH,Richland,40.7623,-82.5254,USW00014891,"MANSFIELD LAHM REGIONAL AIRPORT, OH US",40.8204,-82.51769,2018-11-06,3.6,0,0,13.9,4.4,0.0010191411524398803,0.10008807269694943,,USC00334874,"MANSFIELD 5 W, OH US",40.76047,-82.61668,2018-11-06,3.8,0,0,13.3,7.8,0.0012071202884262275,-1.5967385920724186,1.6968266647693682,USC00332044,"DANVILLE 2 W, OH US",40.43894,-82.30423,2018-11-06,9.7,0,0,14.4,9.4,0.006359331474840282,2.661353701520986,4.258092293593404
43014.0,Danville,Ohio,OH,Knox,40.4557,-82.2639,USC00332044,"DANVILLE 2 W, OH US",40.43894,-82.30423,2018-11-06,9.7,0,0,14.4,9.4,0.0006103288993991716,-2.0703997961271234,,USC00335297,"MILLERSBURG, OH US",40.5375,-81.9197,2018-11-06,14.0,0,0,15.6,10.0,0.004786194881374783,1.265945398421354,3.3363451945484774,USC00334874,"MANSFIELD 5 W, OH US",40.76047,-82.61668,2018-11-06,3.8,0,0,13.3,7.8,0.007081236872951585,-0.7189606930189748,1.9849060914403287
44851.0,New London,Ohio,OH,Huron,41.0906,-82.3966,USC00336118,"NORWALK WWTP, OH US",41.26667,-82.61667,2018-11-06,5.6,0,0,14.4,10.6,0.004219093550687334,-0.7536149761787415,,USW00014891,"MANSFIELD LAHM REGIONAL AIRPORT, OH US",40.8204,-82.51769,2018-11-06,3.6,0,0,13.9,4.4,0.0049786514405038285,-2.8145502654587604,2.060935289280019,USW00004849,"ELYRIA LORAIN CO AIRPORT, OH US",41.34628,-82.17885,2018-11-06,2.5,0,0,14.4,7.8,0.00529958996794183,0.5684974241635675,3.383047689622328
44004.0,Ashtabula,Ohio,OH,Ashtabula,41.8679,-80.7947,USW00004857,"ASHTABULA CO AIRPORT, OH US",41.7794,-80.69683,2018-11-06,3.0,0,0,16.7,5.0,0.0020015384762625066,2.4517589730177405,,USC00331458,"CHARDON, OH US",41.58732,-81.19138,2018-11-06,4.1,0,0,14.4,8.3,0.007118907630994612,-2.327067344364805,4.778826317382546,USC00060961,"BULLS BRIDGE DAM, CT US",41.6763,-73.5086,1998-11-03,0.0,0,0,9.4,-2.8,0.09483563471444797,1.5636048481998082,3.430488712271845
44047.0,Jefferson,Ohio,OH,Ashtabula,41.7335,-80.7562,USW00004857,"ASHTABULA CO AIRPORT, OH US",41.7794,-80.69683,2018-11-06,3.0,0,0,16.7,5.0,0.001113230392197913,0.7671923199426264,,USC00331458,"CHARDON, OH US",41.58732,-81.19138,2018-11-06,4.1,0,0,14.4,8.3,0.00622160438585412,-1.9908045132398533,2.75799683318248,USC00335505,"MOSQUITO CREEK LAKE, OH US",41.29853,-80.76418,2018-11-06,10.9,0,0,16.7,9.4,0.0075923566603698835,-3.127810312974383,1.1370057997345298
44030.0,Conneaut,Ohio,OH,Ashtabula,41.9345,-80.5803,USW00004857,"ASHTABULA CO AIRPORT, OH US",41.7794,-80.69683,2018-11-06,3.0,0,0,16.7,5.0,0.003102025355907552,-2.6307344065756477,,USC00067970,"STAMFORD 5 N, CT US",41.1247,-73.5475,2018-11-06,0.0,0,0,13.3,8.3,0.09290847502997922,1.6825027166937234,4.313237123269371,USC00060961,"BULLS BRIDGE DAM, CT US",41.6763,-73.5086,1998-11-03,0.0,0,0,9.4,-2.8,0.09205377575482797,1.5785103158214107,3.3025697369063396
44003.0,Andover,Ohio,OH,Ashtabula,41.6225,-80.5754,USW00004857,"ASHTABULA CO AIRPORT, OH US",41.7794,-80.69683,2018-11-06,3.0,0,0,16.7,5.0,0.0031627240243263014,-0.5232605815076437,,USC00335505,"MOSQUITO CREEK LAKE, OH US",41.29853,-80.76418,2018-11-06,10.9,0,0,16.7,9.4,0.006169951946221195,-2.728771805186065,2.205511223678421,USC00331458,"CHARDON, OH US",41.58732,-81.19138,2018-11-06,4.1,0,0,14.4,8.3,0.008062250623741671,-1.643458018041805,1.08531378714426
44084.0,Rock Creek,Ohio,OH,Ashtabula,41.6603,-80.8606,USW00004857,"ASHTABULA CO AIRPORT, OH US",41.7794,-80.69683,2018-11-06,3.0,0,0,16.7,5.0,0.0029786989772905216,0.7974541207157724,,USC00331458,"CHARDON, OH US",41.58732,-81.19138,2018-11-06,4.1,0,0,14.4,8.3,0.0044996344106237995,-1.8558781111505094,2.6533322318662815,USC00335505,"MOSQUITO CREEK LAKE, OH US",41.29853,-80.76418,2018-11-06,10.9,0,0,16.7,9.4,0.006438709231522684,2.9439497083462927,4.799827819496802
44085.0,Rome,Ohio,OH,Ashtabula,41.6053,-80.8709,USW00004857,"ASHTABULA CO AIRPORT, OH US",41.7794,-80.69683,2018-11-06,3.0,0,0,16.7,5.0,0.0037920756950606893,0.640310665396426,,USC00331458,"CHARDON, OH US",41.58732,-81.19138,2018-11-06,4.1,0,0,14.4,8.3,0.004194745362894293,-1.6438196185913037,2.2841302839877295,USC00335505,"MOSQUITO CREEK LAKE, OH US",41.29853,-80.76418,2018-11-06,10.9,0,0,16.7,9.4,0.0055331502613692445,2.8859126696785697,4.529732288269873
44041.0,Geneva,Ohio,OH,Ashtabula,41.8029,-80.9474,USW00004857,"ASHTABULA CO AIRPORT, OH US",41.7794,-80.69683,2018-11-06,3.0,0,0,16.7,5.0,0.0032863116842126007,1.6944714057527683,,USC00331458,"CHARDON, OH US",41.58732,-81.19138,2018-11-06,4.1,0,0,14.4,8.3,0.004926142756062978,-2.4385546261360527,4.1330260318888214,USW00014852,"YOUNGSTOWN WARREN REGIONAL AIRPORT, OH US",41.25478,-80.67361,2018-11-06,9.9,0,0,17.2,8.3,0.01021341564319795,2.782163647950228,5.2207182740862805
44093.0,Williamsfield,Ohio,OH,Ashtabula,41.5383,-80.5964,USW00004857,"ASHTABULA CO AIRPORT, OH US",41.7794,-80.69683,2018-11-06,3.0,0,0,16.7,5.0,0.004407051561237315,-0.30112733355174304,,USC00335505,"MOSQUITO CREEK LAKE, OH US",41.29853,-80.76418,2018-11-06,10.9,0,0,16.7,9.4,0.00472593122836599,-2.6573768223998218,2.3562494888480785,USC00331458,"CHARDON, OH US",41.58732,-81.19138,2018-11-06,4.1,0,0,14.4,8.3,0.007816804077029367,-1.4576819438216273,1.1996948785781945
44076.0,Orwell,Ohio,OH,Ashtabula,41.5293,-80.8208,USC00335505,"MOSQUITO CREEK LAKE, OH US",41.29853,-80.76418,2018-11-06,10.9,0,0,16.7,9.4,0.004095308098897052,2.959298832251707,,USW00004857,"ASHTABULA CO AIRPORT, OH US",41.7794,-80.69683,2018-11-06,3.0,0,0,16.7,5.0,0.0046548126294311655,0.35397569289229547,2.6053231393594114,USC00331458,"CHARDON, OH US",41.58732,-81.19138,2018-11-06,4.1,0,0,14.4,8.3,0.0049445574859182185,-1.3623938326809637,1.7163695255732592
44010.0,Austinburg,Ohio,OH,Ashtabula,41.7554,-80.8584,USW00004857,"ASHTABULA CO AIRPORT, OH US",41.7794,-80.69683,2018-11-06,3.0,0,0,16.7,5.0,0.002144563114260815,1.3732722091414236,,USC00331458,"CHARDON, OH US",41.58732,-81.19138,2018-11-06,4.1,0,0,14.4,8.3,0.005239338098514084,-2.16313652639018,3.5364087355316034,USC00335505,"MOSQUITO CREEK LAKE, OH US",41.29853,-80.76418,2018-11-06,10.9,0,0,16.7,9.4,0.008068339202625976,2.987864283658747,5.151000810048927
44032.0,Dorset,Ohio,OH,Ashtabula,41.659,-80.6683,USW00004857,"ASHTABULA CO AIRPORT, OH US",41.7794,-80.69683,2018-11-06,3.0,0,0,16.7,5.0,0.0021339917737967914,-0.17489450092448852,,USC00335505,"MOSQUITO CREEK LAKE, OH US",41.29853,-80.76418,2018-11-06,10.9,0,0,16.7,9.4,0.0064150796372963,-2.944337734719845,2.7694432337953563,USC00331458,"CHARDON, OH US",41.58732,-81.19138,2018-11-06,4.1,0,0,14.4,8.3,0.006938244308488714,-1.7490664910741591,1.1952712436456858
44068.0,North Kingsville,Ohio,OH,Ashtabula,41.9046,-80.685,USW00004857,"ASHTABULA CO AIRPORT, OH US",41.7794,-80.69683,2018-11-06,3.0,0,0,16.7,5.0,0.0021905589872017145,-3.071246737474404,,USC00336118,"NORWALK WWTP, OH US",41.26667,-82.61667,2018-11-06,5.6,0,0,14.4,10.6,0.027563737900313794,-1.975357038304754,1.09588969916965,USC00067970,"STAMFORD 5 N, CT US",41.1247,-73.5475,2018-11-06,0.0,0,0,13.3,8.3,0.09420289644833486,1.674199293681505,3.6495563319862594
44082.0,Pierpont,Ohio,OH,Ashtabula,41.7677,-80.5741,USW00004857,"ASHTABULA CO AIRPORT, OH US",41.7794,-80.69683,2018-11-06,3.0,0,0,16.7,5.0,0.0016104984254688773,-1.4429454355200215,,USC00335505,"MOSQUITO CREEK LAKE, OH US",41.29853,-80.76418,2018-11-06,10.9,0,0,16.7,9.4,0.008556826284604472,-2.84603085045943,1.4030854149394083,USC00067970,"STAMFORD 5 N, CT US",41.1247,-73.5475,2018-11-06,0.0,0,0,13.3,8.3,0.09254893450318749,1.6515080065488952,4.497538857008325
44048.0,Kingsville,Ohio,OH,Ashtabula,41.8723,-80.6601,USW00004857,"ASHTABULA CO AIRPORT, OH US",41.7794,-80.69683,2018-11-06,3.0,0,0,16.7,5.0,0.0016903168894638664,-2.854864262969084,,USW00004848,"TOLEDO METCALF FIELD, OH US",41.56327,-83.47671,2018-11-06,1.3,0,0,14.4,7.2,0.037084308787026836,-1.7003521102416288,1.154512152727455,USC00067970,"STAMFORD 5 N, CT US",41.1247,-73.5475,2018-11-06,0.0,0,0,13.3,8.3,0.09382472789502708,1.6688882477711646,3.369240358012793
44099.0,Windsor,Ohio,OH,Ashtabula,41.5623,-80.9667,USC00331458,"CHARDON, OH US",41.58732,-81.19138,2018-11-06,4.1,0,0,14.4,8.3,0.002965885559984006,-1.421723541294972,,USC00333780,"HIRAM, OH US",41.30718,-81.14759,2018-11-06,6.9,0,0,14.4,8.3,0.005042683825052345,-2.651961100518199,1.230237559223227,USW00004857,"ASHTABULA CO AIRPORT, OH US",41.7794,-80.69683,2018-11-06,3.0,0,0,16.7,5.0,0.005170687968366016,0.7467979155695308,3.39875901608773
44086.0,Thompson,Ohio,OH,Geauga,41.6762,-81.0573,USC00331458,"CHARDON, OH US",41.58732,-81.19138,2018-11-06,4.1,0,0,14.4,8.3,0.002337879143509231,-2.2955430969012816,,USW00004857,"ASHTABULA CO AIRPORT, OH US",41.7794,-80.69683,2018-11-06,3.0,0,0,16.7,5.0,0.005028970481274304,1.202407320635941,3.4979504175372225,USC00335505,"MOSQUITO CREEK LAKE, OH US",41.29853,-80.76418,2018-11-06,10.9,0,0,16.7,9.4,0.007624652430869783,2.6132668400818164,1.4108595194458755
45735.0,Guysville,Ohio,OH,Athens,39.2493,-81.922,USC00330279,"ATHENS OU, OH US",39.3224,-82.0995,2018-11-06,24.6,0,0,18.3,12.2,0.002716107725101324,-1.0808319575341176,,USC00330676,"BEVERLY STP, OH US",39.54747,-81.62835,2018-11-06,18.5,0,0,16.7,9.4,0.006539663760314201,0.6489026865878837,1.7297346441220014,USC00333029,"GALLIPOLIS, OH US",38.82075,-82.18171,2018-11-06,11.7,0,0,18.3,11.7,0.008266843461337117,-2.7002026207654524,3.3491053073533363
45710.0,Albany,Ohio,OH,Athens,39.2097,-82.2177,USC00330279,"ATHENS OU, OH US",39.3224,-82.0995,2018-11-06,24.6,0,0,18.3,12.2,0.0025337806642614365,0.6813619422564625,,USR0000OZAL,"ZALESKI OHIO, OH US",39.2753,-82.385,2018-11-06,0.0,0,0,18.3,3.9,0.0025347359124578144,-1.1012052904883887,1.7825672327448512,USC00333029,"GALLIPOLIS, OH US",38.82075,-82.18171,2018-11-06,11.7,0,0,18.3,11.7,0.00680596645632578,3.0696235327552444,4.1708288232436335
45701.0,Athens,Ohio,OH,Athens,39.3178,-82.102,USC00330279,"ATHENS OU, OH US",39.3224,-82.0995,2018-11-06,24.6,0,0,18.3,12.2,8.709268114528433e-05,0.3979919944896252,,USR0000OZAL,"ZALESKI OHIO, OH US",39.2753,-82.385,2018-11-06,0.0,0,0,18.3,3.9,0.0038937062683916004,-1.7609067022250062,2.1588986967146315,USC00333029,"GALLIPOLIS, OH US",38.82075,-82.18171,2018-11-06,11.7,0,0,18.3,11.7,0.00874211120857447,-3.0172854672518294,1.2563787650268232
45764.0,Nelsonville,Ohio,OH,Athens,39.4556,-82.2309,USC00334672,"LOGAN, OH US",39.5326,-82.3939,2018-11-06,33.0,0,0,17.2,8.9,0.0025740478970112885,-1.0205841210739721,,USC00330279,"ATHENS OU, OH US",39.3224,-82.0995,2018-11-06,24.6,0,0,18.3,12.2,0.00292337476204707,2.4894674537067627,3.510051574780735,USR0000OZAL,"ZALESKI OHIO, OH US",39.2753,-82.385,2018-11-06,0.0,0,0,18.3,3.9,0.0037717558185502644,-2.556828624204567,5.04629607791133
45780.0,The Plains,Ohio,OH,Athens,39.3662,-82.1341,USC00330279,"ATHENS OU, OH US",39.3224,-82.0995,2018-11-06,24.6,0,0,18.3,12.2,0.0008958191962745629,2.592997227565195,,USR0000OZAL,"ZALESKI OHIO, OH US",39.2753,-82.385,2018-11-06,0.0,0,0,18.3,3.9,0.003740754395115096,-2.0073904602969086,4.600387687862104,USC00334672,"LOGAN, OH US",39.5326,-82.3939,2018-11-06,33.0,0,0,17.2,8.9,0.004549075327434867,-0.8769123950993717,1.1304780651975368
45766.0,New Marshfield,Ohio,OH,Athens,39.3228,-82.2594,USR0000OZAL,"ZALESKI OHIO, OH US",39.2753,-82.385,2018-11-06,0.0,0,0,18.3,3.9,0.0018881234203711906,-2.0246727934692172,,USC00330279,"ATHENS OU, OH US",39.3224,-82.0995,2018-11-06,24.6,0,0,18.3,12.2,0.0021589321093817833,1.5731457792038575,3.5978185726730745,USC00334672,"LOGAN, OH US",39.5326,-82.3939,2018-11-06,33.0,0,0,17.2,8.9,0.004086059346479079,-0.4590491541612345,2.032194933365092
45723.0,Coolville,Ohio,OH,Athens,39.2141,-81.8329,USC00330279,"ATHENS OU, OH US",39.3224,-82.0995,2018-11-06,24.6,0,0,18.3,12.2,0.004068131260544596,-1.0861041473780206,,USC00334927,"MARIETTA WWTP, OH US",39.4087,-81.4329,2018-11-06,16.0,0,0,16.7,1.1,0.006380596544707485,1.0072703028128651,2.0933744501908857,USC00333029,"GALLIPOLIS, OH US",38.82075,-82.18171,2018-11-06,11.7,0,0,18.3,11.7,0.008336904748540205,-2.5363836365009753,3.5436539393138404
45732.0,Glouster,Ohio,OH,Athens,39.4978,-82.0871,USC00330279,"ATHENS OU, OH US",39.3224,-82.0995,2018-11-06,24.6,0,0,18.3,12.2,0.0030658695160164086,-3.0869572389032256,,USC00334672,"LOGAN, OH US",39.5326,-82.3939,2018-11-06,33.0,0,0,17.2,8.9,0.004175299295401808,-1.423106804783548,1.6638504341196776,USC00330676,"BEVERLY STP, OH US",39.54747,-81.62835,2018-11-06,18.5,0,0,16.7,9.4,0.006236679270253645,1.4287971721957726,2.8519039769793206
45711.0,Amesville,Ohio,OH,Athens,39.4086,-81.965,USC00330279,"ATHENS OU, OH US",39.3224,-82.0995,2018-11-06,24.6,0,0,18.3,12.2,0.0023573646362586224,-2.2622111979191493,,USC00330676,"BEVERLY STP, OH US",39.54747,-81.62835,2018-11-06,18.5,0,0,16.7,9.4,0.005142246586811157,1.07812313580335,3.3403343337224993,USC00334672,"LOGAN, OH US",39.5326,-82.3939,2018-11-06,33.0,0,0,17.2,8.9,0.006170563992727692,-1.2100681379010745,2.2881912737044248
45776.0,Shade,Ohio,OH,Athens,39.2129,-82.0218,USC00330279,"ATHENS OU, OH US",39.3224,-82.0995,2018-11-06,24.6,0,0,18.3,12.2,0.0021805361469932616,-0.5019243637080285,,USC00333029,"GALLIPOLIS, OH US",38.82075,-82.18171,2018-11-06,11.7,0,0,18.3,11.7,0.007179590617888322,-2.83389100676992,2.3319666430618917,USC00330676,"BEVERLY STP, OH US",39.54747,-81.62835,2018-11-06,18.5,0,0,16.7,9.4,0.007891186719700108,0.7355800831948832,3.5694710899648032
45761.0,Millfield,Ohio,OH,Athens,39.4077,-82.1113,USC00330279,"ATHENS OU, OH US",39.3224,-82.0995,2018-11-06,24.6,0,0,18.3,12.2,0.0014972559530247594,3.034982467275375,,USR0000OZAL,"ZALESKI OHIO, OH US",39.2753,-82.385,2018-11-06,0.0,0,0,18.3,3.9,0.004357582037297399,-2.128231962565435,5.16321442984081,USC00334672,"LOGAN, OH US",39.5326,-82.3939,2018-11-06,33.0,0,0,17.2,8.9,0.004387387599800747,-1.0492540170089406,1.0789779455564943
43728.0,Chesterhill,Ohio,OH,Morgan,39.4953,-81.8773,USC00330676,"BEVERLY STP, OH US",39.54747,-81.62835,2018-11-06,18.5,0,0,16.7,9.4,0.003473151689103432,1.3041496416466478,,USC00330279,"ATHENS OU, OH US",39.3224,-82.0995,2018-11-06,24.6,0,0,18.3,12.2,0.004252595187749181,-2.3585043129558154,3.6626539546024635,USC00335857,"NEW LEXINGTON 2 NW, OH US",39.73315,-82.21559,2018-11-06,35.6,0,0,16.7,9.4,0.006157970110706433,-0.8291339273035446,1.5293703856522707
45719.0,Chauncey,Ohio,OH,Athens,39.4002,-82.1302,USC00330279,"ATHENS OU, OH US",39.3224,-82.0995,2018-11-06,24.6,0,0,18.3,12.2,0.0014196555748128925,2.8453018798795946,,USR0000OZAL,"ZALESKI OHIO, OH US",39.2753,-82.385,2018-11-06,0.0,0,0,18.3,3.9,0.004072107995218319,-2.134281989814799,4.979583869694394,USC00334672,"LOGAN, OH US",39.5326,-82.3939,2018-11-06,33.0,0,0,17.2,8.9,0.004238407837750219,-0.9926976807676618,1.1415843090471371
45778.0,Stewart,Ohio,OH,Athens,39.3213,-81.8929,USC00330279,"ATHENS OU, OH US",39.3224,-82.0995,2018-11-06,24.6,0,0,18.3,12.2,0.0027895452875946825,-1.5627714645267392,,USC00330676,"BEVERLY STP, OH US",39.54747,-81.62835,2018-11-06,18.5,0,0,16.7,9.4,0.0053197198006595114,0.7332345976198485,2.2960060621465876,USC00333029,"GALLIPOLIS, OH US",38.82075,-82.18171,2018-11-06,11.7,0,0,18.3,11.7,0.009572658205317629,-2.7188531709063666,3.4520877685262152
45740.0,Jacksonville,Ohio,OH,Athens,39.477,-82.0794,USC00330279,"ATHENS OU, OH US",39.3224,-82.0995,2018-11-06,24.6,0,0,18.3,12.2,0.0027118613505306166,-3.0413514751505,,USC00334672,"LOGAN, OH US",39.5326,-82.3939,2018-11-06,33.0,0,0,17.2,8.9,0.004344946683431794,-1.3438109659547985,1.6975405091957014,USC00330676,"BEVERLY STP, OH US",39.54747,-81.62835,2018-11-06,18.5,0,0,16.7,9.4,0.006196665966868365,1.3684835560706414,2.7122945220254397
45716.0,Buchtel,Ohio,OH,Athens,39.462,-82.1818,USC00330279,"ATHENS OU, OH US",39.3224,-82.0995,2018-11-06,24.6,0,0,18.3,12.2,0.0026774449729564886,2.713627732761247,,USC00334672,"LOGAN, OH US",39.5326,-82.3939,2018-11-06,33.0,0,0,17.2,8.9,0.003110973067151301,-1.1623731969536517,3.8760009297148987,USR0000OZAL,"ZALESKI OHIO, OH US",39.2753,-82.385,2018-11-06,0.0,0,0,18.3,3.9,0.004258531661957857,-2.4409850683645056,1.2786118714108539
45742.0,Little Hocking,Ohio,OH,Washington,39.28,-81.7071,USC00334927,"MARIETTA WWTP, OH US",39.4087,-81.4329,2018-11-06,16.0,0,0,16.7,1.1,0.004329322922535674,1.023784241564497,,USC00330279,"ATHENS OU, OH US",39.3224,-82.0995,2018-11-06,24.6,0,0,18.3,12.2,0.0053510928004106536,-1.429890358932429,2.4536746004969263,USW00093824,"ZANESVILLE MUNICIPAL AIRPORT, OH US",39.94609,-81.89315,2018-11-06,32.8,0,0,17.2,8.3,0.01189147432306712,-0.2109110741634471,1.218979284768982
45895.0,Wapakoneta,Ohio,OH,Auglaize,40.569,-84.1774,USC00334551,"LIMA WWTP, OH US",40.7247,-84.1294,2018-11-06,1.8,0,0,12.8,-5.6,0.0027908272311890758,0.22950403986757525,,USC00331390,"CELINA 3 NE, OH US",40.56899,-84.537,2018-11-06,3.3,0,0,13.3,8.3,0.004767543314225168,-1.5687920251014424,1.7982960649690176,USC00333915,"HUNTSVILLE 3 N, OH US",40.47996,-83.81278,2018-11-06,7.1,0,0,13.3,8.3,0.005080807540260802,1.8795739769774047,3.4483660020788474
45885.0,Saint Marys,Ohio,OH,Auglaize,40.544,-84.3944,USC00331390,"CELINA 3 NE, OH US",40.56899,-84.537,2018-11-06,3.3,0,0,13.3,8.3,0.001940582843046548,-1.3432946906077219,,USC00334551,"LIMA WWTP, OH US",40.7247,-84.1294,2018-11-06,1.8,0,0,12.8,-5.6,0.004718681597571492,0.8372821787692631,2.180576869376985,USC00337693,"SIDNEY 1 S, OH US",40.2705,-84.1507,2018-11-06,6.1,0,0,14.4,10.0,0.0057684858964413615,2.544069865058934,1.7067876862896711
45869.0,New Bremen,Ohio,OH,Auglaize,40.4389,-84.3821,USC00331390,"CELINA 3 NE, OH US",40.56899,-84.537,2018-11-06,3.3,0,0,13.3,8.3,0.0030628156310118083,-0.734898064520866,,USC00337693,"SIDNEY 1 S, OH US",40.2705,-84.1507,2018-11-06,6.1,0,0,14.4,10.0,0.0042556568558487235,2.331862580488249,3.066760645009115,USC00334551,"LIMA WWTP, OH US",40.7247,-84.1294,2018-11-06,1.8,0,0,12.8,-5.6,0.006008454920280004,0.5899209426057365,1.7419416378825128
45865.0,Minster,Ohio,OH,Auglaize,40.391,-84.3729,USC00337693,"SIDNEY 1 S, OH US",40.2705,-84.1507,2018-11-06,6.1,0,0,14.4,10.0,0.0036281177669769166,2.1878671759015638,,USC00331390,"CELINA 3 NE, OH US",40.56899,-84.537,2018-11-06,3.3,0,0,13.3,8.3,0.003794248129733354,-0.6106515749420038,2.7985187508435674,USC00333375,"GREENVILLE WATER PLANT, OH US",40.1032,-84.6504,2018-11-06,7.9,0,0,13.3,5.6,0.006236711550701624,-2.505579052519012,1.894927477577008
45871.0,New Knoxville,Ohio,OH,Auglaize,40.5039,-84.3118,USC00331390,"CELINA 3 NE, OH US",40.56899,-84.537,2018-11-06,3.3,0,0,13.3,8.3,0.003195864120825913,-1.2061026156778805,,USC00334551,"LIMA WWTP, OH US",40.7247,-84.1294,2018-11-06,1.8,0,0,12.8,-5.6,0.004548718297773511,0.5590652656737314,1.7651678813516118,USC00337693,"SIDNEY 1 S, OH US",40.2705,-84.1507,2018-11-06,6.1,0,0,14.4,10.0,0.00460225851302676,2.6566561535764652,2.097590887902734
45896.0,Waynesfield,Ohio,OH,Auglaize,40.6072,-83.9585,USW00004850,"LIMA ALLEN CO AIRPORT, OH US",40.70806,-84.0214,2018-11-06,2.3,0,0,14.4,6.1,0.0019474029009281552,-0.44154025272713443,,USC00333915,"HUNTSVILLE 3 N, OH US",40.47996,-83.81278,2018-11-06,7.1,0,0,13.3,8.3,0.0029439763920477077,2.424615594882014,2.8661558476091487,USC00337693,"SIDNEY 1 S, OH US",40.2705,-84.1507,2018-11-06,6.1,0,0,14.4,10.0,0.006407164987440184,-2.730646654145495,5.155262249027508
43331.0,Lakeview,Ohio,OH,Logan,40.5019,-83.9202,USC00333915,"HUNTSVILLE 3 N, OH US",40.47996,-83.81278,2018-11-06,7.1,0,0,13.3,8.3,0.0014763511619863146,1.8325601699221348,,USW00004850,"LIMA ALLEN CO AIRPORT, OH US",40.70806,-84.0214,2018-11-06,2.3,0,0,14.4,6.1,0.003839926767594749,-0.3561641327739685,2.1887243026961034,USC00337693,"SIDNEY 1 S, OH US",40.2705,-84.1507,2018-11-06,6.1,0,0,14.4,10.0,0.005069592636986319,-2.491222225842138,2.1350580930681695
45888.0,Uniopolis,Ohio,OH,Auglaize,40.6023,-84.086,USW00004850,"LIMA ALLEN CO AIRPORT, OH US",40.70806,-84.0214,2018-11-06,2.3,0,0,14.4,6.1,0.0020344128149194585,0.4335681592519065,,USC00333915,"HUNTSVILLE 3 N, OH US",40.47996,-83.81278,2018-11-06,7.1,0,0,13.3,8.3,0.004206113328758691,2.1017004085037896,1.668132249251883,USC00337693,"SIDNEY 1 S, OH US",40.2705,-84.1507,2018-11-06,6.1,0,0,14.4,10.0,0.0058544273761870986,-2.9938844529462822,5.095584861450072
45819.0,Buckland,Ohio,OH,Auglaize,40.6241,-84.2603,USC00334551,"LIMA WWTP, OH US",40.7247,-84.1294,2018-11-06,1.8,0,0,12.8,-5.6,0.0024668143118511247,0.7780395555333215,,USC00331390,"CELINA 3 NE, OH US",40.56899,-84.537,2018-11-06,3.3,0,0,13.3,8.3,0.0037910035770628626,-1.8257477563543223,2.603787311887644,USC00337693,"SIDNEY 1 S, OH US",40.2705,-84.1507,2018-11-06,6.1,0,0,14.4,10.0,0.006340831749641277,2.909329316648634,4.735077073002956
45870.0,New Hampshire,Ohio,OH,Auglaize,40.5563,-83.9514,USC00333915,"HUNTSVILLE 3 N, OH US",40.47996,-83.81278,2018-11-06,7.1,0,0,13.3,8.3,0.0022711093655593305,2.1969465018202925,,USW00004850,"LIMA ALLEN CO AIRPORT, OH US",40.70806,-84.0214,2018-11-06,2.3,0,0,14.4,6.1,0.0028063011447673784,-0.3363205791669054,2.5332670809871978,USC00337693,"SIDNEY 1 S, OH US",40.2705,-84.1507,2018-11-06,6.1,0,0,14.4,10.0,0.005647631810841329,-2.6523674242430593,2.316046845076154
45884.0,Saint Johns,Ohio,OH,Auglaize,40.5559,-84.0836,USW00004850,"LIMA ALLEN CO AIRPORT, OH US",40.70806,-84.0214,2018-11-06,2.3,0,0,14.4,6.1,0.0027805494096155184,0.30045900407164283,,USC00333915,"HUNTSVILLE 3 N, OH US",40.47996,-83.81278,2018-11-06,7.1,0,0,13.3,8.3,0.003829896712097082,1.9226362547925684,1.6221772507209256,USC00337693,"SIDNEY 1 S, OH US",40.2705,-84.1507,2018-11-06,6.1,0,0,14.4,10.0,0.005060343406722282,-2.964079858869634,4.886716113662202
45822.0,Celina,Ohio,OH,Mercer,40.5566,-84.6287,USC00331390,"CELINA 3 NE, OH US",40.56899,-84.537,2018-11-06,3.3,0,0,13.3,8.3,0.0012349449548212368,1.394262557820433,,USC00338609,"VAN WERT 1 S, OH US",40.8494,-84.5808,2018-11-06,2.5,0,0,12.8,8.3,0.005149468839810759,0.12311730545910356,1.2711452523613296,USC00333375,"GREENVILLE WATER PLANT, OH US",40.1032,-84.6504,2018-11-06,7.9,0,0,13.3,5.6,0.007918567408280045,-3.1050005661137012,3.2281178715728047
45862.0,Mendon,Ohio,OH,Mercer,40.6777,-84.5152,USC00331390,"CELINA 3 NE, OH US",40.56899,-84.537,2018-11-06,3.3,0,0,13.3,8.3,0.001919198936706201,-2.990421897208208,,USC00338609,"VAN WERT 1 S, OH US",40.8494,-84.5808,2018-11-06,2.5,0,0,12.8,8.3,0.0031196787614150754,-0.2813095561325168,2.7091123410756914,USC00334551,"LIMA WWTP, OH US",40.7247,-84.1294,2018-11-06,1.8,0,0,12.8,-5.6,0.00517026895058782,1.409270407503198,1.6905799636357148
43912.0,Bridgeport,Ohio,OH,Belmont,40.0752,-80.7747,USC00338025,"STEUBENVILLE, OH US",40.3765,-80.6283,2018-11-06,14.0,0,0,16.7,8.9,0.005608876844784028,0.35441951528032944,,USC00333500,"HANNIBAL LOCKS AND DAM, OH US",39.6667,-80.8667,2018-11-06,7.6,0,0,16.1,8.3,0.0072353756209330095,-2.969919070936472,3.3243385862168013,USC00332160,"DENNISON WATER WORKS, OH US",40.4056,-81.3435,2018-11-06,19.6,0,0,16.1,9.4,0.009522510849836989,-0.9171154806428425,2.052803590293629
43950.0,Saint Clairsville,Ohio,OH,Belmont,40.0778,-80.9788,USC00338025,"STEUBENVILLE, OH US",40.3765,-80.6283,2018-11-06,14.0,0,0,16.7,8.9,0.006999443660275106,0.7285682110593523,,USC00333500,"HANNIBAL LOCKS AND DAM, OH US",39.6667,-80.8667,2018-11-06,7.6,0,0,16.1,8.3,0.007330469608055117,2.9346647905692946,2.2060965795099423,USC00332160,"DENNISON WATER WORKS, OH US",40.4056,-81.3435,2018-11-06,19.6,0,0,16.1,9.4,0.007505918531843963,-0.7020063403677124,3.636671130937007
43940.0,Neffs,Ohio,OH,Belmont,40.0284,-80.8245,USC00333500,"HANNIBAL LOCKS AND DAM, OH US",39.6667,-80.8667,2018-11-06,7.6,0,0,16.1,8.3,0.006338120385663568,-3.052020352466877,,USC00338025,"STEUBENVILLE, OH US",40.3765,-80.6283,2018-11-06,14.0,0,0,16.7,8.9,0.006614505247987057,0.40540190127443376,3.457422253741311,USC00332160,"DENNISON WATER WORKS, OH US",40.4056,-81.3435,2018-11-06,19.6,0,0,16.1,9.4,0.009549001248028073,-0.8071795193127628,1.2125814205871965
43906.0,Bellaire,Ohio,OH,Belmont,40.0204,-80.7638,USC00333500,"HANNIBAL LOCKS AND DAM, OH US",39.6667,-80.8667,2018-11-06,7.6,0,0,16.1,8.3,0.006325348282239742,-2.921253631326745,,USC00338025,"STEUBENVILLE, OH US",40.3765,-80.6283,2018-11-06,14.0,0,0,16.7,8.9,0.006472282200214927,0.28208456469848214,3.203338196025227,USC00332160,"DENNISON WATER WORKS, OH US",40.4056,-81.3435,2018-11-06,19.6,0,0,16.1,9.4,0.010241757527679488,-0.8514648100586019,1.133549374757084
43977.0,Flushing,Ohio,OH,Belmont,40.1451,-81.0757,USC00332160,"DENNISON WATER WORKS, OH US",40.4056,-81.3435,2018-11-06,19.6,0,0,16.1,9.4,0.005778203837173904,-0.6636011754117465,,USC00331197,"CAMBRIDGE, OH US",40.0111,-81.5794,2018-11-06,29.7,0,0,18.3,11.1,0.007121698934775505,-1.9025682940822428,1.2389671186704962,USC00338025,"STEUBENVILLE, OH US",40.3765,-80.6283,2018-11-06,14.0,0,0,16.7,8.9,0.007198487024394212,0.9726282420476252,2.875196536129868
43719.0,Bethesda,Ohio,OH,Belmont,40.0192,-81.0767,USC00331197,"CAMBRIDGE, OH US",40.0111,-81.5794,2018-11-06,29.7,0,0,18.3,11.1,0.006721071802178382,-1.589011037178446,,USC00333500,"HANNIBAL LOCKS AND DAM, OH US",39.6667,-80.8667,2018-11-06,7.6,0,0,16.1,8.3,0.006765336984910243,2.711414542490941,4.300425579669387,USC00332160,"DENNISON WATER WORKS, OH US",40.4056,-81.3435,2018-11-06,19.6,0,0,16.1,9.4,0.0076240114405141815,-0.48373610763383934,3.1951506501247806
43935.0,Martins Ferry,Ohio,OH,Belmont,40.1036,-80.7361,USC00338025,"STEUBENVILLE, OH US",40.3765,-80.6283,2018-11-06,14.0,0,0,16.7,8.9,0.004974819327552195,0.2922559271017987,,USC00333500,"HANNIBAL LOCKS AND DAM, OH US",39.6667,-80.8667,2018-11-06,7.6,0,0,16.1,8.3,0.007823343200199137,-2.915387483189377,3.2076434102911757,USC00332160,"DENNISON WATER WORKS, OH US",40.4056,-81.3435,2018-11-06,19.6,0,0,16.1,9.4,0.009655998071630272,-0.9899570746451869,1.92543040854419
43942.0,Powhatan Point,Ohio,OH,Belmont,39.8679,-80.8168,USC00333500,"HANNIBAL LOCKS AND DAM, OH US",39.6667,-80.8667,2018-11-06,7.6,0,0,16.1,8.3,0.00357483910617401,-2.9529401603133163,,USC00338025,"STEUBENVILLE, OH US",40.3765,-80.6283,2018-11-06,14.0,0,0,16.7,8.9,0.009226307391603343,0.2751059315736631,3.2280460918869793,USC00331197,"CAMBRIDGE, OH US",40.0111,-81.5794,2018-11-06,29.7,0,0,18.3,11.1,0.010506499439814026,-1.3263443449269654,1.6014502765006284
43947.0,Shadyside,Ohio,OH,Belmont,39.9675,-80.7643,USC00333500,"HANNIBAL LOCKS AND DAM, OH US",39.6667,-80.8667,2018-11-06,7.6,0,0,16.1,8.3,0.005426447304562184,-2.885267857571371,,USC00338025,"STEUBENVILLE, OH US",40.3765,-80.6283,2018-11-06,14.0,0,0,16.7,8.9,0.007365190965448922,0.24805095202100635,3.133318809592377,USC00331197,"CAMBRIDGE, OH US",40.0111,-81.5794,2018-11-06,29.7,0,0,18.3,11.1,0.010926031005691474,-1.4965235901295577,1.744574542150564
43713.0,Barnesville,Ohio,OH,Belmont,39.9853,-81.1375,USC00331197,"CAMBRIDGE, OH US",40.0111,-81.5794,2018-11-06,29.7,0,0,18.3,11.1,0.005925477260789754,-1.4922518354264602,,USC00333500,"HANNIBAL LOCKS AND DAM, OH US",39.6667,-80.8667,2018-11-06,7.6,0,0,16.1,8.3,0.006640458553601308,2.561757711806983,4.054009547233443,USC00332160,"DENNISON WATER WORKS, OH US",40.4056,-81.3435,2018-11-06,19.6,0,0,16.1,9.4,0.007832825391385002,-0.3570691632512085,2.918826875058192
43718.0,Belmont,Ohio,OH,Belmont,40.032,-81.0066,USC00333500,"HANNIBAL LOCKS AND DAM, OH US",39.6667,-80.8667,2018-11-06,7.6,0,0,16.1,8.3,0.006645544046580519,2.8548477288236103,,USC00331197,"CAMBRIDGE, OH US",40.0111,-81.5794,2018-11-06,29.7,0,0,18.3,11.1,0.007664570208986781,-1.615191414382419,4.470039143206029,USC00338025,"STEUBENVILLE, OH US",40.3765,-80.6283,2018-11-06,14.0,0,0,16.7,8.9,0.007847317189337278,0.6957580188677537,2.3109494332501725
43905.0,Barton,Ohio,OH,Belmont,40.1073,-80.8412,USC00338025,"STEUBENVILLE, OH US",40.3765,-80.6283,2018-11-06,14.0,0,0,16.7,8.9,0.005488172741827738,0.5419243410266765,,USC00333500,"HANNIBAL LOCKS AND DAM, OH US",39.6667,-80.8667,2018-11-06,7.6,0,0,16.1,8.3,0.0076974805623642156,-3.09707041436103,3.6389947553877064,USC00332160,"DENNISON WATER WORKS, OH US",40.4056,-81.3435,2018-11-06,19.6,0,0,16.1,9.4,0.008477448148368524,-0.9066796947972429,2.190390719563787
43933.0,Jacobsburg,Ohio,OH,Belmont,39.9372,-80.888,USC00333500,"HANNIBAL LOCKS AND DAM, OH US",39.6667,-80.8667,2018-11-06,7.6,0,0,16.1,8.3,0.004729742164652503,3.0810519593053054,,USC00338025,"STEUBENVILLE, OH US",40.3765,-80.6283,2018-11-06,14.0,0,0,16.7,8.9,0.008413471658046292,0.42290548398337025,2.658146475321935,USC00331197,"CAMBRIDGE, OH US",40.0111,-81.5794,2018-11-06,29.7,0,0,18.3,11.1,0.009336970377540414,-1.4283406092120643,1.8512460931954346
43759.0,Morristown,Ohio,OH,Belmont,40.0631,-81.0743,USC00331197,"CAMBRIDGE, OH US",40.0111,-81.5794,2018-11-06,29.7,0,0,18.3,11.1,0.0068102371650225575,-1.7016228961094504,,USC00332160,"DENNISON WATER WORKS, OH US",40.4056,-81.3435,2018-11-06,19.6,0,0,16.1,9.4,0.006971261150118095,-0.5389243546916646,1.162698541417786,USC00333500,"HANNIBAL LOCKS AND DAM, OH US",39.6667,-80.8667,2018-11-06,7.6,0,0,16.1,8.3,0.007456512084574278,2.7582178864305393,3.297142241122204
43901.0,Adena,Ohio,OH,Jefferson,40.2126,-80.8815,USC00338025,"STEUBENVILLE, OH US",40.3765,-80.6283,2018-11-06,14.0,0,0,16.7,8.9,0.0044208734967492724,0.8656404648116633,,USC00332160,"DENNISON WATER WORKS, OH US",40.4056,-81.3435,2018-11-06,19.6,0,0,16.1,9.4,0.007011070683724784,-1.0670224374465573,1.9326629022582207,USC00333500,"HANNIBAL LOCKS AND DAM, OH US",39.6667,-80.8667,2018-11-06,7.6,0,0,16.1,8.3,0.009529774467687765,3.1207259299474677,4.1877483673940255
43983.0,Piedmont,Ohio,OH,Belmont,40.1507,-81.2145,USC00332160,"DENNISON WATER WORKS, OH US",40.4056,-81.3435,2018-11-06,19.6,0,0,16.1,9.4,0.004768919538846713,-0.36773616841464934,,USC00331197,"CAMBRIDGE, OH US",40.0111,-81.5794,2018-11-06,29.7,0,0,18.3,11.1,0.00544809215102039,-2.032394815532813,1.6646586471181635,USC00338025,"STEUBENVILLE, OH US",40.3765,-80.6283,2018-11-06,14.0,0,0,16.7,8.9,0.008745387635455647,1.1000236057823083,3.132418421315121
43971.0,Yorkville,Ohio,OH,Jefferson,40.1581,-80.7077,USC00338025,"STEUBENVILLE, OH US",40.3765,-80.6283,2018-11-06,14.0,0,0,16.7,8.9,0.003955743257656737,0.2701527129731376,,USC00333500,"HANNIBAL LOCKS AND DAM, OH US",39.6667,-80.8667,2018-11-06,7.6,0,0,16.1,8.3,0.008836703177761319,-2.8974335878345925,3.16758630080773,USC00332160,"DENNISON WATER WORKS, OH US",40.4056,-81.3435,2018-11-06,19.6,0,0,16.1,9.4,0.009503803872337447,-1.0953815028394238,1.8020520849951687
43917.0,Dillonvale,Ohio,OH,Jefferson,40.2251,-80.8031,USC00338025,"STEUBENVILLE, OH US",40.3765,-80.6283,2018-11-06,14.0,0,0,16.7,8.9,0.003520818152956675,0.7209695966847446,,USC00332160,"DENNISON WATER WORKS, OH US",40.4056,-81.3435,2018-11-06,19.6,0,0,16.1,9.4,0.007851369915353824,-1.1548750636824425,1.875844660367187,USC00333500,"HANNIBAL LOCKS AND DAM, OH US",39.6667,-80.8667,2018-11-06,7.6,0,0,16.1,8.3,0.00978296258528019,-3.0541377214927286,1.899262657810286
43943.0,Rayland,Ohio,OH,Jefferson,40.2083,-80.7125,USC00338025,"STEUBENVILLE, OH US",40.3765,-80.6283,2018-11-06,14.0,0,0,16.7,8.9,0.0031423640215784065,0.3642706017119453,,USC00332160,"DENNISON WATER WORKS, OH US",40.4056,-81.3435,2018-11-06,19.6,0,0,16.1,9.4,0.009076913549407655,-1.1781222661479296,1.5423928678598748,USC00333500,"HANNIBAL LOCKS AND DAM, OH US",39.6667,-80.8667,2018-11-06,7.6,0,0,16.1,8.3,0.00967527590581181,-2.9257982398449367,1.7476759736970071
43985.0,Holloway,Ohio,OH,Belmont,40.1623,-81.1326,USC00332160,"DENNISON WATER WORKS, OH US",40.4056,-81.3435,2018-11-06,19.6,0,0,16.1,9.4,0.005090815791874499,-0.5830621887721615,,USC00331197,"CAMBRIDGE, OH US",40.0111,-81.5794,2018-11-06,29.7,0,0,18.3,11.1,0.006523674450651952,-1.9847327701935915,1.4016705814214299,USC00338025,"STEUBENVILLE, OH US",40.3765,-80.6283,2018-11-06,14.0,0,0,16.7,8.9,0.007686216444266595,1.0600046019834688,3.0447373721770603
43951.0,Lafferty,Ohio,OH,Belmont,40.111,-81.0102,USC00332160,"DENNISON WATER WORKS, OH US",40.4056,-81.3435,2018-11-06,19.6,0,0,16.1,9.4,0.006792988771281395,-0.710337773038137,,USC00338025,"STEUBENVILLE, OH US",40.3765,-80.6283,2018-11-06,14.0,0,0,16.7,8.9,0.006881654672730025,0.8299013686906769,1.540239141728814,USC00331197,"CAMBRIDGE, OH US",40.0111,-81.5794,2018-11-06,29.7,0,0,18.3,11.1,0.007800713943852753,-1.793016730893619,2.622918099584296
43967.0,Warnock,Ohio,OH,Belmont,40.0226,-80.9373,USC00333500,"HANNIBAL LOCKS AND DAM, OH US",39.6667,-80.8667,2018-11-06,7.6,0,0,16.1,8.3,0.006283248320238286,2.990053551091918,,USC00338025,"STEUBENVILLE, OH US",40.3765,-80.6283,2018-11-06,14.0,0,0,16.7,8.9,0.00742425048088131,0.5864228033793968,2.403630747712521,USC00331197,"CAMBRIDGE, OH US",40.0111,-81.5794,2018-11-06,29.7,0,0,18.3,11.1,0.008585058300598638,-1.5905743472016816,2.1769971505810783
43934.0,Lansing,Ohio,OH,Belmont,40.0756,-80.7901,USC00338025,"STEUBENVILLE, OH US",40.3765,-80.6283,2018-11-06,14.0,0,0,16.7,8.9,0.005677050193283452,0.3886573558076405,,USC00333500,"HANNIBAL LOCKS AND DAM, OH US",39.6667,-80.8667,2018-11-06,7.6,0,0,16.1,8.3,0.007210019154517166,-2.998367398555146,3.3870247543627863,USC00332160,"DENNISON WATER WORKS, OH US",40.4056,-81.3435,2018-11-06,19.6,0,0,16.1,9.4,0.009355748670829393,-0.9045141941234222,2.0938532044317237
43716.0,Beallsville,Ohio,OH,Monroe,39.8484,-81.0368,USC00333500,"HANNIBAL LOCKS AND DAM, OH US",39.6667,-80.8667,2018-11-06,7.6,0,0,16.1,8.3,0.00390713833710857,2.5168312010666383,,USC00331197,"CAMBRIDGE, OH US",40.0111,-81.5794,2018-11-06,29.7,0,0,18.3,11.1,0.007797432562036448,-1.1950119563089387,3.711843157375577,USC00334927,"MARIETTA WWTP, OH US",39.4087,-81.4329,2018-11-06,16.0,0,0,16.7,1.1,0.009340412514727798,-2.5328159421084155,1.3378039857994768
43747.0,Jerusalem,Ohio,OH,Monroe,39.8488,-81.0921,USC00333500,"HANNIBAL LOCKS AND DAM, OH US",39.6667,-80.8667,2018-11-06,7.6,0,0,16.1,8.3,0.004387179063798714,2.379756414920252,,USC00331197,"CAMBRIDGE, OH US",40.0111,-81.5794,2018-11-06,29.7,0,0,18.3,11.1,0.007110450977272898,-1.1583197454571903,3.538076160377442,USC00334927,"MARIETTA WWTP, OH US",39.4087,-81.4329,2018-11-06,16.0,0,0,16.7,1.1,0.008943545925977521,-2.6019146945835887,1.4435949491263984
43928.0,Glencoe,Ohio,OH,Belmont,40.0109,-80.8993,USC00333500,"HANNIBAL LOCKS AND DAM, OH US",39.6667,-80.8667,2018-11-06,7.6,0,0,16.1,8.3,0.006023279440615001,3.068813210258158,,USC00338025,"STEUBENVILLE, OH US",40.3765,-80.6283,2018-11-06,14.0,0,0,16.7,8.9,0.007332758880870567,0.5136818027225882,2.55513140753557,USC00332160,"DENNISON WATER WORKS, OH US",40.4056,-81.3435,2018-11-06,19.6,0,0,16.1,9.4,0.0090835331335754,-0.7074732020606509,1.2211550047832391
43937.0,Maynard,Ohio,OH,Belmont,40.1302,-80.8773,USC00338025,"STEUBENVILLE, OH US",40.3765,-80.6283,2018-11-06,14.0,0,0,16.7,8.9,0.005429537703524643,0.6557550084261116,,USC00332160,"DENNISON WATER WORKS, OH US",40.4056,-81.3435,2018-11-06,19.6,0,0,16.1,9.4,0.007851716880116974,-0.9093635758054983,1.5651185842316098,USC00333500,"HANNIBAL LOCKS AND DAM, OH US",39.6667,-80.8667,2018-11-06,7.6,0,0,16.1,8.3,0.008090824004991967,3.1239900130924294,4.033353588897928
43927.0,Fairpoint,Ohio,OH,Belmont,40.1225,-80.938,USC00338025,"STEUBENVILLE, OH US",40.3765,-80.6283,2018-11-06,14.0,0,0,16.7,8.9,0.006055773235441758,0.7477268057303211,,USC00332160,"DENNISON WATER WORKS, OH US",40.4056,-81.3435,2018-11-06,19.6,0,0,16.1,9.4,0.0073197537482680075,-0.8275154003993361,1.5752422061296572,USC00333500,"HANNIBAL LOCKS AND DAM, OH US",39.6667,-80.8667,2018-11-06,7.6,0,0,16.1,8.3,0.008012276099497796,3.021748784979091,3.849264185378427
43902.0,Alledonia,Ohio,OH,Belmont,39.9053,-80.9578,USC00333500,"HANNIBAL LOCKS AND DAM, OH US",39.6667,-80.8667,2018-11-06,7.6,0,0,16.1,8.3,0.004339891068093761,2.8556942658380824,,USC00331197,"CAMBRIDGE, OH US",40.0111,-81.5794,2018-11-06,29.7,0,0,18.3,11.1,0.008518379596026518,-1.3488077568770138,4.204502022715096,USC00338025,"STEUBENVILLE, OH US",40.3765,-80.6283,2018-11-06,14.0,0,0,16.7,8.9,0.009325266047043207,0.48906930262878767,1.8378770595058014
43773.0,Quaker City,Ohio,OH,Guernsey,39.9866,-81.2899,USC00331197,"CAMBRIDGE, OH US",40.0111,-81.5794,2018-11-06,29.7,0,0,18.3,11.1,0.0038942231099428413,-1.4591458111786295,,USC00332160,"DENNISON WATER WORKS, OH US",40.4056,-81.3435,2018-11-06,19.6,0,0,16.1,9.4,0.0073477410454232716,-0.09710229759436516,1.3620435135842643,USC00333500,"HANNIBAL LOCKS AND DAM, OH US",39.6667,-80.8667,2018-11-06,7.6,0,0,16.1,8.3,0.007959282691104363,2.3459004271270185,2.4430027247213837
45121.0,Georgetown,Ohio,OH,Brown,38.8717,-83.9092,USC00333758,"HILLSBORO, OH US",39.2334,-83.6091,2018-11-06,30.0,0,0,15.6,10.6,0.00750972186561044,0.5707190948818391,,USW00093812,"CINCINNATI MUNICIPAL AIRPORT LUNKEN FIELD, OH US",39.106,-84.41609,2018-11-06,5.8,0,0,16.1,6.1,0.00800042864496925,-1.0315135696169169,1.602232664498756,USC00336781,"PORTSMOUTH SCIOTOVILLE, OH US",38.7569,-82.8872,2018-11-06,23.6,0,0,17.8,4.4,0.014041956047848834,1.7083783607551117,2.7398919303720284
45168.0,Russellville,Ohio,OH,Brown,38.8511,-83.7625,USC00333758,"HILLSBORO, OH US",39.2334,-83.6091,2018-11-06,30.0,0,0,15.6,10.6,0.0069888947128284645,0.30126581320644563,,USW00093812,"CINCINNATI MUNICIPAL AIRPORT LUNKEN FIELD, OH US",39.106,-84.41609,2018-11-06,5.8,0,0,16.1,6.1,0.00992113676739131,-1.1022193249180476,1.4034851381244933,USC00334770,"LUCASVILLE, OH US",38.8845,-82.9955,2018-11-06,32.5,0,0,17.8,6.7,0.01043902160071688,1.510725842605961,2.6129451675240087
45167.0,Ripley,Ohio,OH,Brown,38.7551,-83.8227,USC00333758,"HILLSBORO, OH US",39.2334,-83.6091,2018-11-06,30.0,0,0,15.6,10.6,0.008836412137544545,0.3329059863428076,,USW00093812,"CINCINNATI MUNICIPAL AIRPORT LUNKEN FIELD, OH US",39.106,-84.41609,2018-11-06,5.8,0,0,16.1,6.1,0.010119937718695692,-0.9175647130586574,1.250470699401465,USC00336781,"PORTSMOUTH SCIOTOVILLE, OH US",38.7569,-82.8872,2018-11-06,23.6,0,0,17.8,4.4,0.012732433949653022,1.5632183771219534,2.4807830901806107
45154.0,Mount Orab,Ohio,OH,Brown,39.0454,-83.948,USC00333758,"HILLSBORO, OH US",39.2334,-83.6091,2018-11-06,30.0,0,0,15.6,10.6,0.0056403104926143754,0.9480613009673544,,USW00093812,"CINCINNATI MUNICIPAL AIRPORT LUNKEN FIELD, OH US",39.106,-84.41609,2018-11-06,5.8,0,0,16.1,6.1,0.006429827762863848,-1.4029776135327066,2.351038914500061,USC00332067,"DAYTON MCD, OH US",39.78118,-84.19035,2018-11-06,12.4,0,0,15.0,10.6,0.013250942964036823,-0.24784348562081282,1.1551341279118938
45171.0,Sardinia,Ohio,OH,Brown,38.9832,-83.7966,USC00333758,"HILLSBORO, OH US",39.2334,-83.6091,2018-11-06,30.0,0,0,15.6,10.6,0.0050514409035889805,0.5256748917481917,,USW00093812,"CINCINNATI MUNICIPAL AIRPORT LUNKEN FIELD, OH US",39.106,-84.41609,2018-11-06,5.8,0,0,16.1,6.1,0.008666464504167684,-1.3174962827738468,1.8431711745220385,USC00334770,"LUCASVILLE, OH US",38.8845,-82.9955,2018-11-06,32.5,0,0,17.8,6.7,0.011011559937060255,1.723483599433213,3.0409798822070595
45106.0,Bethel,Ohio,OH,Clermont,38.9424,-84.0919,USW00093812,"CINCINNATI MUNICIPAL AIRPORT LUNKEN FIELD, OH US",39.106,-84.41609,2018-11-06,5.8,0,0,16.1,6.1,0.005241697207351161,-0.9929395558778977,,USC00333758,"HILLSBORO, OH US",39.2334,-83.6091,2018-11-06,30.0,0,0,15.6,10.6,0.008280813494150309,0.9078720847897147,1.9008116406676123,USC00337857,"SOUTH POINT, OH US",38.42375,-82.59307,2018-11-06,12.7,0,0,17.8,10.6,0.022336079973046374,1.979856015170706,1.0719839303809913
45130.0,Hamersville,Ohio,OH,Brown,38.92,-83.9931,USW00093812,"CINCINNATI MUNICIPAL AIRPORT LUNKEN FIELD, OH US",39.106,-84.41609,2018-11-06,5.8,0,0,16.1,6.1,0.006591140729187185,-1.053486200689334,,USC00333758,"HILLSBORO, OH US",39.2334,-83.6091,2018-11-06,30.0,0,0,15.6,10.6,0.007549061639143831,0.7582735333360693,1.8117597340254032,USC00337857,"SOUTH POINT, OH US",38.42375,-82.59307,2018-11-06,12.7,0,0,17.8,10.6,0.020950762063581246,1.9893193124154789,1.2310457790794096
45118.0,Fayetteville,Ohio,OH,Brown,39.1862,-83.9501,USC00339220,"WEATHER FORECAST OFFICE WILMINGTON, OH US",39.42157,-83.82225,2018-11-06,12.7,0,0,15.0,7.2,0.0044560968698124995,0.3971909849478889,,USW00093812,"CINCINNATI MUNICIPAL AIRPORT LUNKEN FIELD, OH US",39.106,-84.41609,2018-11-06,5.8,0,0,16.1,6.1,0.006460932614013491,-1.7866078117437383,2.1837987966916272,USC00332928,"FRANKLIN, OH US",39.5536,-84.319,2018-11-06,0.0,0,0,15.0,5.0,0.008117390165273177,-0.6580342210468041,1.1285735906969343
45148.0,Midland,Ohio,OH,Clinton,39.2917,-83.8931,USC00339220,"WEATHER FORECAST OFFICE WILMINGTON, OH US",39.42157,-83.82225,2018-11-06,12.7,0,0,15.0,7.2,0.002460065676635059,0.39878493778810437,,USC00333758,"HILLSBORO, OH US",39.2334,-83.6091,2018-11-06,30.0,0,0,15.6,10.6,0.003970367687352367,1.8283989918023005,1.4296140540141962,USW00053859,"DAYTON WRIGHT BROTHERS AIRPORT, OH US",39.5918,-84.2263,2018-11-06,4.3,0,0,15.6,10.0,0.006899522358360168,-0.706957813854769,2.5353568056570692
45101.0,Aberdeen,Ohio,OH,Brown,38.6709,-83.7637,USC00333758,"HILLSBORO, OH US",39.2334,-83.6091,2018-11-06,30.0,0,0,15.6,10.6,0.010039177102613043,0.20972297384289126,,USW00093812,"CINCINNATI MUNICIPAL AIRPORT LUNKEN FIELD, OH US",39.106,-84.41609,2018-11-06,5.8,0,0,16.1,6.1,0.01167106839095487,-0.8587813457763694,1.0685043196192607,USC00336781,"PORTSMOUTH SCIOTOVILLE, OH US",38.7569,-82.8872,2018-11-06,23.6,0,0,17.8,4.4,0.01203043676043025,1.440924633223022,2.299705978999391
45176.0,Williamsburg,Ohio,OH,Clermont,39.0753,-84.0432,USW00093812,"CINCINNATI MUNICIPAL AIRPORT LUNKEN FIELD, OH US",39.106,-84.41609,2018-11-06,5.8,0,0,16.1,6.1,0.005079632212802477,-1.463065185500036,,USC00333758,"HILLSBORO, OH US",39.2334,-83.6091,2018-11-06,30.0,0,0,15.6,10.6,0.006490864995910622,1.1293187144546883,2.5923838999547244,USW00053859,"DAYTON WRIGHT BROTHERS AIRPORT, OH US",39.5918,-84.2263,2018-11-06,4.3,0,0,15.6,10.0,0.009347319266393907,-0.2666068402510766,1.395925554705765
45107.0,Blanchester,Ohio,OH,Clinton,39.3034,-83.974,USC00339220,"WEATHER FORECAST OFFICE WILMINGTON, OH US",39.42157,-83.82225,2018-11-06,12.7,0,0,15.0,7.2,0.0029063454043022478,0.7809720289311304,,USW00053859,"DAYTON WRIGHT BROTHERS AIRPORT, OH US",39.5918,-84.2263,2018-11-06,4.3,0,0,15.6,10.0,0.006074440431977502,-0.5927272300485186,1.373699258979649,USW00093812,"CINCINNATI MUNICIPAL AIRPORT LUNKEN FIELD, OH US",39.106,-84.41609,2018-11-06,5.8,0,0,16.1,6.1,0.006900594221719797,-2.091112590433677,1.4983853603851585
45120.0,Felicity,Ohio,OH,Clermont,38.8262,-84.0986,USW00093812,"CINCINNATI MUNICIPAL AIRPORT LUNKEN FIELD, OH US",39.106,-84.41609,2018-11-06,5.8,0,0,16.1,6.1,0.006512303743012206,-0.721182286730162,,USC00333758,"HILLSBORO, OH US",39.2334,-83.6091,2018-11-06,30.0,0,0,15.6,10.6,0.009723838977166688,0.7485046990817726,1.4696869858119346,USC00337857,"SOUTH POINT, OH US",38.42375,-82.59307,2018-11-06,12.7,0,0,17.8,10.6,0.021696118451022844,1.8922528950308017,1.143748195949029
45142.0,Lynchburg,Ohio,OH,Highland,39.2119,-83.8021,USC00333758,"HILLSBORO, OH US",39.2334,-83.6091,2018-11-06,30.0,0,0,15.6,10.6,0.002636387729986961,1.4269131976571323,,USC00339220,"WEATHER FORECAST OFFICE WILMINGTON, OH US",39.42157,-83.82225,2018-11-06,12.7,0,0,15.0,7.2,0.003669530580544418,-0.07410296804690196,1.5010161657040342,USW00093812,"CINCINNATI MUNICIPAL AIRPORT LUNKEN FIELD, OH US",39.106,-84.41609,2018-11-06,5.8,0,0,16.1,6.1,0.008512310275429908,-1.7862860564815746,1.7121830884346727
45115.0,Decatur,Ohio,OH,Brown,38.8237,-83.6995,USC00333758,"HILLSBORO, OH US",39.2334,-83.6091,2018-11-06,30.0,0,0,15.6,10.6,0.007254880655418149,0.16926138612824346,,USC00334770,"LUCASVILLE, OH US",38.8845,-82.9955,2018-11-06,32.5,0,0,17.8,6.7,0.009627143455855563,1.4564940045840888,1.2872326184558454,USW00093812,"CINCINNATI MUNICIPAL AIRPORT LUNKEN FIELD, OH US",39.106,-84.41609,2018-11-06,5.8,0,0,16.1,6.1,0.010901340119354917,-1.0979031929070404,2.554397197491129
45011.0,Hamilton,Ohio,OH,Butler,39.4059,-84.5221,USW00053855,"HAMILTON BUTLER CO REGIONAL AIRPORT, OH US",39.36119,-84.52063,2018-11-06,4.1,0,0,16.1,5.6,0.0007805886139496083,3.116177629218352,,USC00332928,"FRANKLIN, OH US",39.5536,-84.319,2018-11-06,0.0,0,0,15.0,5.0,0.0037591368413172374,0.8140290408778419,2.3021485883405104,USC00332485,"EATON, OH US",39.7328,-84.6353,2018-11-06,9.7,0,0,15.0,9.4,0.00590524203860796,-0.2602229907828621,1.074252031660704
45069.0,West Chester,Ohio,OH,Butler,39.3402,-84.3998,USW00053855,"HAMILTON BUTLER CO REGIONAL AIRPORT, OH US",39.36119,-84.52063,2018-11-06,4.1,0,0,16.1,5.6,0.0016713970526919648,-1.3491491276381287,,USC00332928,"FRANKLIN, OH US",39.5536,-84.319,2018-11-06,0.0,0,0,15.0,5.0,0.003880468049442462,0.2840078143342582,1.6331569419723868,USW00093812,"CINCINNATI MUNICIPAL AIRPORT LUNKEN FIELD, OH US",39.106,-84.41609,2018-11-06,5.8,0,0,16.1,6.1,0.004093488068565046,-3.087670524135349,3.371678338469607
45014.0,Fairfield,Ohio,OH,Butler,39.3266,-84.5479,USC00332651,"FAIRFIELD, OH US",39.3477,-84.5897,2018-11-06,16.8,0,0,16.7,7.2,0.0006737957919519013,-0.9923237928155012,,USW00053855,"HAMILTON BUTLER CO REGIONAL AIRPORT, OH US",39.36119,-84.52063,2018-11-06,4.1,0,0,16.1,5.6,0.0007070694997055999,0.5473675529424079,1.5396913457579091,USW00093812,"CINCINNATI MUNICIPAL AIRPORT LUNKEN FIELD, OH US",39.106,-84.41609,2018-11-06,5.8,0,0,16.1,6.1,0.004242732735679757,2.7073130074426706,2.1599454545002628
45042.0,Middletown,Ohio,OH,Butler,39.5321,-84.3896,USC00332928,"FRANKLIN, OH US",39.5536,-84.319,2018-11-06,0.0,0,0,15.0,5.0,0.0010216215999642709,1.1942953207067317,,USW00053855,"HAMILTON BUTLER CO REGIONAL AIRPORT, OH US",39.36119,-84.52063,2018-11-06,4.1,0,0,16.1,5.6,0.0034665012459930296,-2.6063285395770914,3.800623860283823,USC00332485,"EATON, OH US",39.7328,-84.6353,2018-11-06,9.7,0,0,15.0,9.4,0.004814288475674452,-0.7546148968311115,1.85171364274598
45013.0,Hamilton,Ohio,OH,Butler,39.4361,-84.6185,USC00332651,"FAIRFIELD, OH US",39.3477,-84.5897,2018-11-06,16.8,0,0,16.7,7.2,0.0015910230230863985,2.8947803091590325,,USC00332928,"FRANKLIN, OH US",39.5536,-84.319,2018-11-06,0.0,0,0,15.0,5.0,0.004525146891565424,1.0987925596754538,1.7959877494835788,USC00332485,"EATON, OH US",39.7328,-84.6353,2018-11-06,9.7,0,0,15.0,9.4,0.005183314352540312,-0.04351740999460666,1.1423099696700605
45056.0,Oxford,Ohio,OH,Butler,39.507,-84.7452,USC00332651,"FAIRFIELD, OH US",39.3477,-84.5897,2018-11-06,16.8,0,0,16.7,7.2,0.0034820756377575996,2.494671207853735,,USC00332485,"EATON, OH US",39.7328,-84.6353,2018-11-06,9.7,0,0,15.0,9.4,0.004208813839199682,0.35808201258797595,2.136589195265759,USC00332928,"FRANKLIN, OH US",39.5536,-84.319,2018-11-06,0.0,0,0,15.0,5.0,0.0057946464413534465,1.4276073095883968,1.0695252970004208
45015.0,Hamilton,Ohio,OH,Butler,39.3494,-84.5376,USW00053855,"HAMILTON BUTLER CO REGIONAL AIRPORT, OH US",39.36119,-84.52063,2018-11-06,4.1,0,0,16.1,5.6,0.0003078826201761698,0.838709823296128,,USC00332651,"FAIRFIELD, OH US",39.3477,-84.5897,2018-11-06,16.8,0,0,16.7,7.2,0.0007038030928155747,-1.6126780761426078,2.451387899438736,USW00093812,"CINCINNATI MUNICIPAL AIRPORT LUNKEN FIELD, OH US",39.106,-84.41609,2018-11-06,5.8,0,0,16.1,6.1,0.004554713276619849,2.771920329796421,4.384598405939029
45044.0,Middletown,Ohio,OH,Butler,39.5151,-84.3983,USC00332928,"FRANKLIN, OH US",39.5536,-84.319,2018-11-06,0.0,0,0,15.0,5.0,0.0012613240592370403,1.0085266443722922,,USW00053855,"HAMILTON BUTLER CO REGIONAL AIRPORT, OH US",39.36119,-84.52063,2018-11-06,4.1,0,0,16.1,5.6,0.0031519557170020026,-2.5903771821361032,3.5989038265083955,USC00332485,"EATON, OH US",39.7328,-84.6353,2018-11-06,9.7,0,0,15.0,9.4,0.00495860690480824,-0.6964806636482753,1.893896518487828
45067.0,Trenton,Ohio,OH,Butler,39.4799,-84.4598,USW00053855,"HAMILTON BUTLER CO REGIONAL AIRPORT, OH US",39.36119,-84.52063,2018-11-06,4.1,0,0,16.1,5.6,0.002228304943566854,-2.7643304679860328,,USC00332928,"FRANKLIN, OH US",39.5536,-84.319,2018-11-06,0.0,0,0,15.0,5.0,0.0022909509488230955,0.97384995951013,3.7381804274961627,USC00332485,"EATON, OH US",39.7328,-84.6353,2018-11-06,9.7,0,0,15.0,9.4,0.005005189529463201,-0.4900051967460633,1.4638551562561932
45050.0,Monroe,Ohio,OH,Butler,39.4413,-84.3652,USC00332928,"FRANKLIN, OH US",39.5536,-84.319,2018-11-06,0.0,0,0,15.0,5.0,0.002056397280355885,0.30713762144598605,,USW00053855,"HAMILTON BUTLER CO REGIONAL AIRPORT, OH US",39.36119,-84.52063,2018-11-06,4.1,0,0,16.1,5.6,0.0025197212520247005,-2.1581726565112254,2.4653102779572116,USC00339220,"WEATHER FORECAST OFFICE WILMINGTON, OH US",39.42157,-83.82225,2018-11-06,12.7,0,0,15.0,7.2,0.0073273955314852495,1.6147989975833221,3.7729716540945475
45241.0,Cincinnati,Ohio,OH,Hamilton,39.2638,-84.4092,USW00053855,"HAMILTON BUTLER CO REGIONAL AIRPORT, OH US",39.36119,-84.52063,2018-11-06,4.1,0,0,16.1,5.6,0.0022701082986197082,-0.7239850053952448,,USW00093812,"CINCINNATI MUNICIPAL AIRPORT LUNKEN FIELD, OH US",39.106,-84.41609,2018-11-06,5.8,0,0,16.1,6.1,0.0027557055055403633,-3.1077239980207345,2.3837389926254895,USW00053859,"DAYTON WRIGHT BROTHERS AIRPORT, OH US",39.5918,-84.2263,2018-11-06,4.3,0,0,15.6,10.0,0.006233110565058726,0.4056938497212227,3.513417847741957
45053.0,Okeana,Ohio,OH,Butler,39.3537,-84.7761,USC00332651,"FAIRFIELD, OH US",39.3477,-84.5897,2018-11-06,16.8,0,0,16.7,7.2,0.0025178826446746834,1.6113672737702738,,USC00332485,"EATON, OH US",39.7328,-84.6353,2018-11-06,9.7,0,0,15.0,9.4,0.006882553835593123,0.278158831867206,1.3332084419030679,USC00314260,"HOT SPRINGS, NC US",35.89536,-82.8313,2018-11-06,8.4,0,0,20.0,11.7,0.0660589270858166,2.7121142309215656,2.4339553990543594
45246.0,Cincinnati,Ohio,OH,Hamilton,39.2839,-84.4744,USW00053855,"HAMILTON BUTLER CO REGIONAL AIRPORT, OH US",39.36119,-84.52063,2018-11-06,4.1,0,0,16.1,5.6,0.0014863753152812896,-0.4331202409801895,,USW00093812,"CINCINNATI MUNICIPAL AIRPORT LUNKEN FIELD, OH US",39.106,-84.41609,2018-11-06,5.8,0,0,16.1,6.1,0.0032035486761517093,2.8925118187912195,3.325632059771409,USC00339220,"WEATHER FORECAST OFFICE WILMINGTON, OH US",39.42157,-83.82225,2018-11-06,12.7,0,0,15.0,7.2,0.009123373308937035,1.3006814215228897,1.5918303972683299
45327.0,Germantown,Ohio,OH,Montgomery,39.6244,-84.3764,USC00332928,"FRANKLIN, OH US",39.5536,-84.319,2018-11-06,0.0,0,0,15.0,5.0,0.0014570444599869396,2.5828316653920678,,USC00332067,"DAYTON MCD, OH US",39.78118,-84.19035,2018-11-06,12.4,0,0,15.0,10.6,0.003705248755146561,0.7389175957639574,1.8439140696281102,USC00332485,"EATON, OH US",39.7328,-84.6353,2018-11-06,9.7,0,0,15.0,9.4,0.003959039925278978,-1.0711181574542146,1.810035753218172
45004.0,Collinsville,Ohio,OH,Butler,39.5153,-84.6094,USC00332651,"FAIRFIELD, OH US",39.3477,-84.5897,2018-11-06,16.8,0,0,16.7,7.2,0.0029372011635988853,3.0509441979784624,,USC00332485,"EATON, OH US",39.7328,-84.6353,2018-11-06,9.7,0,0,15.0,9.4,0.003812023151196505,-0.0913211946336089,3.1422653926120714,USC00332928,"FRANKLIN, OH US",39.5536,-84.319,2018-11-06,0.0,0,0,15.0,5.0,0.003965729900540665,1.399815753668692,1.491136948302301
45064.0,Somerville,Ohio,OH,Butler,39.5554,-84.6219,USC00332485,"EATON, OH US",39.7328,-84.6353,2018-11-06,9.7,0,0,15.0,9.4,0.0031014457466797592,-0.05802399426194537,,USC00332651,"FAIRFIELD, OH US",39.3477,-84.5897,2018-11-06,16.8,0,0,16.7,7.2,0.003650928399707176,3.0222716862256696,3.0802956804876147,USC00332928,"FRANKLIN, OH US",39.5536,-84.319,2018-11-06,0.0,0,0,15.0,5.0,0.004076188165981559,1.5768202708063086,1.445451415419361
45062.0,Seven Mile,Ohio,OH,Butler,39.479,-84.5512,USW00053855,"HAMILTON BUTLER CO REGIONAL AIRPORT, OH US",39.36119,-84.52063,2018-11-06,4.1,0,0,16.1,5.6,0.0020970760693563868,2.9435897430509215,,USC00332928,"FRANKLIN, OH US",39.5536,-84.319,2018-11-06,0.0,0,0,15.0,5.0,0.0033866747541780513,1.1748931798936681,1.7686965631572533,USC00332485,"EATON, OH US",39.7328,-84.6353,2018-11-06,9.7,0,0,15.0,9.4,0.004571718154875699,-0.24949117372136412,1.4243843536150322
45030.0,Harrison,Ohio,OH,Hamilton,39.2592,-84.7837,USC00332651,"FAIRFIELD, OH US",39.3477,-84.5897,2018-11-06,16.8,0,0,16.7,7.2,0.0030414583871266527,1.0370332289575759,,USC00314260,"HOT SPRINGS, NC US",35.89536,-82.8313,2018-11-06,8.4,0,0,20.0,11.7,0.06460762671480948,2.6999741195068485,1.6629408905492726,USC00349101,"UPPER SPAVINAW PORT, OK US",36.348,-94.8244,2018-11-06,5.8,0,0,17.2,2.2,0.1472556128715513,-1.8678237394990789,4.567797859005927
44615.0,Carrollton,Ohio,OH,Carroll,40.5787,-81.0818,USC00332160,"DENNISON WATER WORKS, OH US",40.4056,-81.3435,2018-11-06,19.6,0,0,16.1,9.4,0.004603599277511455,-2.28516406910149,,USC00466442,"NEW CUMBERLAND L D, WV US",40.5261,-80.6275,2018-11-06,17.5,0,0,15.6,8.3,0.00609409938209921,1.719437898400406,4.004601967501896,USW00014895,"AKRON CANTON AIRPORT, OH US",40.91811,-81.44342,2018-11-06,10.2,0,0,16.1,7.8,0.007612716735164282,-0.6770323266723816,2.3964702250727874
44644.0,Malvern,Ohio,OH,Carroll,40.6845,-81.1838,USW00004852,"NEW PHILADELPHIA CLEVER FIELD, OH US",40.47031,-81.42176,2018-11-06,14.5,0,0,17.2,3.9,0.004891377117782042,-2.439347087293457,,USW00014895,"AKRON CANTON AIRPORT, OH US",40.91811,-81.44342,2018-11-06,10.2,0,0,16.1,7.8,0.00532814883758499,-0.6979199650247141,1.741427122268743,USC00466442,"NEW CUMBERLAND L D, WV US",40.5261,-80.6275,2018-11-06,17.5,0,0,15.6,8.3,0.00787271858566927,1.9264442724197457,2.6243642374444596
44657.0,Minerva,Ohio,OH,Stark,40.742,-81.1031,USW00014895,"AKRON CANTON AIRPORT, OH US",40.91811,-81.44342,2018-11-06,10.2,0,0,16.1,7.8,0.00544482544850574,-0.9690092570395509,,USW00004852,"NEW PHILADELPHIA CLEVER FIELD, OH US",40.47031,-81.42176,2018-11-06,14.5,0,0,17.2,3.9,0.006349337159622836,-2.4122656939554163,1.4432564369158656,USC00466442,"NEW CUMBERLAND L D, WV US",40.5261,-80.6275,2018-11-06,17.5,0,0,15.6,8.3,0.007340315630704981,2.107174185735348,4.519439879690765
43903.0,Amsterdam,Ohio,OH,Jefferson,40.4731,-80.9596,USC00466442,"NEW CUMBERLAND L D, WV US",40.5261,-80.6275,2018-11-06,17.5,0,0,15.6,8.3,0.004503537086818296,1.3620431025703637,,USC00332160,"DENNISON WATER WORKS, OH US",40.4056,-81.3435,2018-11-06,19.6,0,0,16.1,9.4,0.005233867867075594,-1.7956585230471147,3.157701625617478,USW00014895,"AKRON CANTON AIRPORT, OH US",40.91811,-81.44342,2018-11-06,10.2,0,0,16.1,7.8,0.010065405878852721,-0.6866385430892845,1.1090199799578302
44643.0,Magnolia,Ohio,OH,Stark,40.6514,-81.3076,USW00004852,"NEW PHILADELPHIA CLEVER FIELD, OH US",40.47031,-81.42176,2018-11-06,14.5,0,0,17.2,3.9,0.003504396494811899,-2.6942958556857457,,USW00014895,"AKRON CANTON AIRPORT, OH US",40.91811,-81.44342,2018-11-06,10.2,0,0,16.1,7.8,0.004989010296346537,-0.3672421771615907,2.327053678524155,USC00466442,"NEW CUMBERLAND L D, WV US",40.5261,-80.6275,2018-11-06,17.5,0,0,15.6,8.3,0.009275482973063937,1.8049432294788343,2.172185406640425
44675.0,Sherrodsville,Ohio,OH,Carroll,40.5184,-81.2339,USC00332160,"DENNISON WATER WORKS, OH US",40.4056,-81.3435,2018-11-06,19.6,0,0,16.1,9.4,0.002448276302183279,-2.504384594882405,,USW00014895,"AKRON CANTON AIRPORT, OH US",40.91811,-81.44342,2018-11-06,10.2,0,0,16.1,7.8,0.0075066316430927454,-0.3769762760949946,2.1274083187874107,USC00466442,"NEW CUMBERLAND L D, WV US",40.5261,-80.6275,2018-11-06,17.5,0,0,15.6,8.3,0.008046305760814809,1.5506553105626815,1.927631586657676
44620.0,Dellroy,Ohio,OH,Carroll,40.5861,-81.1986,USW00004852,"NEW PHILADELPHIA CLEVER FIELD, OH US",40.47031,-81.42176,2018-11-06,14.5,0,0,17.2,3.9,0.003584451575058259,-2.1685100111603095,,USW00014895,"AKRON CANTON AIRPORT, OH US",40.91811,-81.44342,2018-11-06,10.2,0,0,16.1,7.8,0.006637430661194271,-0.5080294189264885,1.660480592233821,USC00466442,"NEW CUMBERLAND L D, WV US",40.5261,-80.6275,2018-11-06,17.5,0,0,15.6,8.3,0.007645088996145015,1.7049626651956449,2.212992084122133
44688.0,Waynesburg,Ohio,OH,Stark,40.6829,-81.2659,USW00004852,"NEW PHILADELPHIA CLEVER FIELD, OH US",40.47031,-81.42176,2018-11-06,14.5,0,0,17.2,3.9,0.004246875186190851,-2.632617836313644,,USW00014895,"AKRON CANTON AIRPORT, OH US",40.91811,-81.44342,2018-11-06,10.2,0,0,16.1,7.8,0.004727932408404419,-0.5180544526731756,2.1145633836404683,USC00466442,"NEW CUMBERLAND L D, WV US",40.5261,-80.6275,2018-11-06,17.5,0,0,15.6,8.3,0.008890970271605575,1.880049443613312,2.3981038962864876
44651.0,Mechanicstown,Ohio,OH,Carroll,40.6263,-80.956,USC00466442,"NEW CUMBERLAND L D, WV US",40.5261,-80.6275,2018-11-06,17.5,0,0,15.6,8.3,0.004692785237555252,1.9508053117711353,,USC00332160,"DENNISON WATER WORKS, OH US",40.4056,-81.3435,2018-11-06,19.6,0,0,16.1,9.4,0.0064243572550440825,-2.211575876699113,4.162381188470248,USW00014895,"AKRON CANTON AIRPORT, OH US",40.91811,-81.44342,2018-11-06,10.2,0,0,16.1,7.8,0.008212450932423041,-0.8990780605667053,1.312497816132408
43988.0,Scio,Ohio,OH,Harrison,40.4012,-81.1016,USC00332160,"DENNISON WATER WORKS, OH US",40.4056,-81.3435,2018-11-06,19.6,0,0,16.1,9.4,0.0032159300290773916,-1.5455464456942307,,USC00338025,"STEUBENVILLE, OH US",40.3765,-80.6283,2018-11-06,14.0,0,0,16.7,8.9,0.006306571394502929,1.6365294347403845,3.182075880434615,USW00014895,"AKRON CANTON AIRPORT, OH US",40.91811,-81.44342,2018-11-06,10.2,0,0,16.1,7.8,0.01009321474221164,-0.46301713459584154,2.099546569336226
44427.0,Kensington,Ohio,OH,Columbiana,40.7142,-80.9381,USC00466442,"NEW CUMBERLAND L D, WV US",40.5261,-80.6275,2018-11-06,17.5,0,0,15.6,8.3,0.005263933981033259,2.2424589251837266,,USW00014895,"AKRON CANTON AIRPORT, OH US",40.91811,-81.44342,2018-11-06,10.2,0,0,16.1,7.8,0.007564173969080389,-1.0780685248408965,3.320527450024623,USC00332160,"DENNISON WATER WORKS, OH US",40.4056,-81.3435,2018-11-06,19.6,0,0,16.1,9.4,0.007609554011382637,-2.354875555877718,1.2768070310368214
44625.0,East Rochester,Ohio,OH,Columbiana,40.7563,-81.0175,USW00014895,"AKRON CANTON AIRPORT, OH US",40.91811,-81.44342,2018-11-06,10.2,0,0,16.1,7.8,0.006293341247925713,-1.1030068468067957,,USC00466442,"NEW CUMBERLAND L D, WV US",40.5261,-80.6275,2018-11-06,17.5,0,0,15.6,8.3,0.0065436463257735975,2.2296831411821696,3.3326899879889655,USW00004852,"NEW PHILADELPHIA CLEVER FIELD, OH US",40.47031,-81.42176,2018-11-06,14.5,0,0,17.2,3.9,0.0073213434110205155,-2.3186715177824357,4.548354658964605
44730.0,East Canton,Ohio,OH,Stark,40.7873,-81.2826,USW00014895,"AKRON CANTON AIRPORT, OH US",40.91811,-81.44342,2018-11-06,10.2,0,0,16.1,7.8,0.003117662284457414,-0.748185778319236,,USW00004852,"NEW PHILADELPHIA CLEVER FIELD, OH US",40.47031,-81.42176,2018-11-06,14.5,0,0,17.2,3.9,0.005831507954175653,-2.8191890233938706,2.0710032450746345,USC00338769,"WARREN 3 S, OH US",41.2019,-80.8105,2018-11-06,10.4,0,0,15.0,6.1,0.009541351547795292,0.7072554961319927,3.5264445195258634
44695.0,Bowerston,Ohio,OH,Harrison,40.4371,-81.1862,USC00332160,"DENNISON WATER WORKS, OH US",40.4056,-81.3435,2018-11-06,19.6,0,0,16.1,9.4,0.00216116415023832,-1.8271229904305935,,USC00338025,"STEUBENVILLE, OH US",40.3765,-80.6283,2018-11-06,14.0,0,0,16.7,8.9,0.007489522601320997,1.709332282412607,3.5364552728432006,USW00014895,"AKRON CANTON AIRPORT, OH US",40.91811,-81.44342,2018-11-06,10.2,0,0,16.1,7.8,0.00905927522678534,-0.38381886814528454,2.0931511505578912
43044.0,Mechanicsburg,Ohio,OH,Champaign,40.0647,-83.5724,USC00338552,"URBANA WRF, OH US",40.0991,-83.7823,2018-11-06,9.4,0,0,13.9,8.3,0.002866572053128997,-1.3586084835252679,,USC00334681,"LONDON FISH HATCHERY, OH US",39.8972,-83.5096,2018-11-06,14.5,0,0,13.9,9.4,0.0030416764256900515,2.8614849177926667,4.220093401317935,USC00334979,"MARYSVILLE, OH US",40.19382,-83.26751,2018-11-06,0.3,0,0,14.4,7.2,0.004651066798702884,1.063260771618157,1.7982241461745097
43009.0,Cable,Ohio,OH,Champaign,40.1784,-83.647,USC00338552,"URBANA WRF, OH US",40.0991,-83.7823,2018-11-06,9.4,0,0,13.9,8.3,0.0022747776787877838,-2.2241170976734197,,USC00330563,"BELLEFONTAINE, OH US",40.3535,-83.7754,2018-11-06,5.1,0,0,13.9,9.4,0.0035019512995614686,-0.50941635126981,1.7147007464036097,USC00334979,"MARYSVILLE, OH US",40.19382,-83.26751,2018-11-06,0.3,0,0,14.4,7.2,0.005067067590020163,1.5155211618231577,2.0249375130929677
43078.0,Urbana,Ohio,OH,Champaign,40.1066,-83.7671,USC00338552,"URBANA WRF, OH US",40.0991,-83.7823,2018-11-06,9.4,0,0,13.9,8.3,0.0002414751639329559,-2.143625366995809,,USC00330563,"BELLEFONTAINE, OH US",40.3535,-83.7754,2018-11-06,5.1,0,0,13.9,9.4,0.0043106335729119075,-0.02561263867366997,2.118012728322139,USC00334681,"LONDON FISH HATCHERY, OH US",39.8972,-83.5096,2018-11-06,14.5,0,0,13.9,9.4,0.0050208473499786,2.3846158665985993,2.4102285052722694
45502.0,Springfield,Ohio,OH,Clark,39.9242,-83.8088,USC00337935,"SPRINGFIELD WATER TREATMENT PLANT, OH US",39.9735,-83.8072,2018-11-06,8.9,0,0,15.0,10.6,0.0008607135701226174,0.024866000093845597,,USC00335786,"NEW CARLISLE, OH US",39.9317,-84.0329,2018-11-06,10.2,0,0,15.0,10.6,0.003002228764282296,-1.525926566565412,1.5507925666592577,USC00334681,"LONDON FISH HATCHERY, OH US",39.8972,-83.5096,2018-11-06,14.5,0,0,13.9,9.4,0.004033150046854594,1.6862296133949086,3.2121561799603207
43072.0,Saint Paris,Ohio,OH,Champaign,40.1058,-83.9631,USC00338552,"URBANA WRF, OH US",40.0991,-83.7823,2018-11-06,9.4,0,0,13.9,8.3,0.0024164948668502066,1.6181900257894426,,USC00335786,"NEW CARLISLE, OH US",39.9317,-84.0329,2018-11-06,10.2,0,0,15.0,10.6,0.003178619550612477,-2.843300240362856,4.461490266152299,USC00336650,"PIQUA WWTP, OH US",40.1311,-84.2344,2018-11-06,6.6,0,0,14.4,6.1,0.0036478015098769727,-1.4479229715797446,1.3953772687831114
43084.0,Woodstock,Ohio,OH,Champaign,40.1816,-83.5461,USC00338552,"URBANA WRF, OH US",40.0991,-83.7823,2018-11-06,9.4,0,0,13.9,8.3,0.003464850203789104,-1.9980387079787858,,USC00334979,"MARYSVILLE, OH US",40.19382,-83.26751,2018-11-06,0.3,0,0,14.4,7.2,0.003720602613865824,1.5118724019359364,3.5099111099147224,USC00330563,"BELLEFONTAINE, OH US",40.3535,-83.7754,2018-11-06,5.1,0,0,13.9,9.4,0.00428092534447313,-0.7929383189474433,2.3048107208833795
43060.0,North Lewisburg,Ohio,OH,Champaign,40.2229,-83.5615,USC00330563,"BELLEFONTAINE, OH US",40.3535,-83.7754,2018-11-06,5.1,0,0,13.9,9.4,0.00364763403196138,-0.8945897159460866,,USC00338552,"URBANA WRF, OH US",40.0991,-83.7823,2018-11-06,9.4,0,0,13.9,8.3,0.003652727977337068,-2.2025138447949058,1.307924128848819,USC00334979,"MARYSVILLE, OH US",40.19382,-83.26751,2018-11-06,0.3,0,0,14.4,7.2,0.003951352844735878,1.6979431015057593,3.900456946300665
43045.0,Milford Center,Ohio,OH,Union,40.1817,-83.4373,USC00334979,"MARYSVILLE, OH US",40.19382,-83.26751,2018-11-06,0.3,0,0,14.4,7.2,0.0022736981259559004,1.4766703848722746,,USC00338552,"URBANA WRF, OH US",40.0991,-83.7823,2018-11-06,9.4,0,0,13.9,8.3,0.00482361354152397,-1.8723641715352488,3.3490345564075232,USC00334681,"LONDON FISH HATCHERY, OH US",39.8972,-83.5096,2018-11-06,14.5,0,0,13.9,9.4,0.005058565361280096,-2.9490248751166526,1.0766607035814038
43357.0,West Liberty,Ohio,OH,Logan,40.2625,-83.7528,USC00330563,"BELLEFONTAINE, OH US",40.3535,-83.7754,2018-11-06,5.1,0,0,13.9,9.4,0.0016164818700852958,-0.18704316664826942,,USC00338552,"URBANA WRF, OH US",40.0991,-83.7823,2018-11-06,9.4,0,0,13.9,8.3,0.002878868510505359,-3.0043577421312446,2.817314575482975,USC00337693,"SIDNEY 1 S, OH US",40.2705,-84.1507,2018-11-06,6.1,0,0,14.4,10.0,0.005300930000346432,-1.5422091427074112,1.4621485994238335
45317.0,Conover,Ohio,OH,Miami,40.1457,-84.0283,USC00337693,"SIDNEY 1 S, OH US",40.2705,-84.1507,2018-11-06,6.1,0,0,14.4,10.0,0.002721429452218684,-0.642183144343483,,USC00338552,"URBANA WRF, OH US",40.0991,-83.7823,2018-11-06,9.4,0,0,13.9,8.3,0.003382355295088715,1.8122527519454585,2.4544358962889414,USC00335786,"NEW CARLISLE, OH US",39.9317,-84.0329,2018-11-06,10.2,0,0,15.0,10.6,0.003735508174701326,-3.125111265943626,4.9373640178890845
43318.0,De Graff,Ohio,OH,Logan,40.3058,-83.9153,USC00330563,"BELLEFONTAINE, OH US",40.3535,-83.7754,2018-11-06,5.1,0,0,13.9,9.4,0.0020390944901287067,1.1494371829912395,,USC00337693,"SIDNEY 1 S, OH US",40.2705,-84.1507,2018-11-06,6.1,0,0,14.4,10.0,0.003193958708517385,-1.763580085522179,2.9130172685134186,USC00338552,"URBANA WRF, OH US",40.0991,-83.7823,2018-11-06,9.4,0,0,13.9,8.3,0.004019699088538526,2.6840647317373714,4.44764481725955
45389.0,Christiansburg,Ohio,OH,Champaign,40.0564,-84.0254,USC00335786,"NEW CARLISLE, OH US",39.9317,-84.0329,2018-11-06,10.2,0,0,15.0,10.6,0.002178734317836079,-3.095505890034192,,USC00336650,"PIQUA WWTP, OH US",40.1311,-84.2344,2018-11-06,6.6,0,0,14.4,6.1,0.0030800338217769627,-1.1325440541375773,1.9629618358966145,USC00337935,"SPRINGFIELD WATER TREATMENT PLANT, OH US",39.9735,-83.8072,2018-11-06,8.9,0,0,15.0,10.6,0.0032558478789478126,2.030068266446138,3.1626123205837153
45344.0,New Carlisle,Ohio,OH,Clark,39.93,-84.0217,USC00335786,"NEW CARLISLE, OH US",39.9317,-84.0329,2018-11-06,10.2,0,0,15.0,10.6,0.00015280382470375642,-1.3753177895964526,,USC00337935,"SPRINGFIELD WATER TREATMENT PLANT, OH US",39.9735,-83.8072,2018-11-06,8.9,0,0,15.0,10.6,0.002968614030862771,1.3109730444530217,2.6862908340494744,USC00332067,"DAYTON MCD, OH US",39.78118,-84.19035,2018-11-06,12.4,0,0,15.0,10.6,0.003442717610981972,-2.42468534561869,3.7356583900717117
43070.0,Rosewood,Ohio,OH,Champaign,40.2158,-83.9579,USC00337693,"SIDNEY 1 S, OH US",40.2705,-84.1507,2018-11-06,6.1,0,0,14.4,10.0,0.0027402183684958593,-1.2138451277948736,,USC00338552,"URBANA WRF, OH US",40.0991,-83.7823,2018-11-06,9.4,0,0,13.9,8.3,0.0031040513844946276,2.2855448746607787,3.4993900024556526,USC00330563,"BELLEFONTAINE, OH US",40.3535,-83.7754,2018-11-06,5.1,0,0,13.9,9.4,0.0034175949778668118,0.7898527716784122,1.4956921029823667
43343.0,Quincy,Ohio,OH,Logan,40.2876,-83.9744,USC00337693,"SIDNEY 1 S, OH US",40.2705,-84.1507,2018-11-06,6.1,0,0,14.4,10.0,0.0023663649473498545,-1.6962605601509815,,USC00330563,"BELLEFONTAINE, OH US",40.3535,-83.7754,2018-11-06,5.1,0,0,13.9,9.4,0.0028870929976297756,1.159918869605291,2.8561794297562724,USC00338552,"URBANA WRF, OH US",40.0991,-83.7823,2018-11-06,9.4,0,0,13.9,8.3,0.004169277435694685,2.4790423237380086,1.3191234541327177
45368.0,South Charleston,Ohio,OH,Clark,39.8543,-83.6653,USC00334681,"LONDON FISH HATCHERY, OH US",39.8972,-83.5096,2018-11-06,14.5,0,0,13.9,9.4,0.002215827826146147,1.225232136689904,,USC00337935,"SPRINGFIELD WATER TREATMENT PLANT, OH US",39.9735,-83.8072,2018-11-06,8.9,0,0,15.0,10.6,0.0028172046423777996,-0.7391983762442108,1.9644305129341149,USC00339361,"XENIA 6 SSE, OH US",39.6041,-83.9072,2018-11-06,15.2,0,0,13.9,11.7,0.005441681137005252,-2.500874863920974,1.761676487676763
45503.0,Springfield,Ohio,OH,Clark,39.9528,-83.7804,USC00337935,"SPRINGFIELD WATER TREATMENT PLANT, OH US",39.9735,-83.8072,2018-11-06,8.9,0,0,15.0,10.6,0.0005089738510072332,-0.7813942041962557,,USC00334681,"LONDON FISH HATCHERY, OH US",39.8972,-83.5096,2018-11-06,14.5,0,0,13.9,9.4,0.003752219780566008,1.8308733438427138,2.6122675480389694,USC00332067,"DAYTON MCD, OH US",39.78118,-84.19035,2018-11-06,12.4,0,0,15.0,10.6,0.006255434640994529,-2.0678290056184454,3.8987023494611592
45323.0,Enon,Ohio,OH,Clark,39.8663,-83.9385,USC00335786,"NEW CARLISLE, OH US",39.9317,-84.0329,2018-11-06,10.2,0,0,15.0,10.6,0.0017031070451252672,-0.8357718513759603,,USC00337935,"SPRINGFIELD WATER TREATMENT PLANT, OH US",39.9735,-83.8072,2018-11-06,8.9,0,0,15.0,10.6,0.0025670115918985507,0.753405972357086,1.5891778237330463,USC00332067,"DAYTON MCD, OH US",39.78118,-84.19035,2018-11-06,12.4,0,0,15.0,10.6,0.003688335399420051,-1.9839505951024279,2.7373565674595137
45505.0,Springfield,Ohio,OH,Clark,39.9106,-83.7856,USC00337935,"SPRINGFIELD WATER TREATMENT PLANT, OH US",39.9735,-83.8072,2018-11-06,8.9,0,0,15.0,10.6,0.0011352240167005095,-0.2573211036177593,,USC00335786,"NEW CARLISLE, OH US",39.9317,-84.0329,2018-11-06,10.2,0,0,15.0,10.6,0.0033306346525385057,-1.4586162619832463,1.201295158365487,USC00334681,"LONDON FISH HATCHERY, OH US",39.8972,-83.5096,2018-11-06,14.5,0,0,13.9,9.4,0.003702697502248807,1.6324562961145828,3.091072558097829
45506.0,Springfield,Ohio,OH,Clark,39.9104,-83.8275,USC00337935,"SPRINGFIELD WATER TREATMENT PLANT, OH US",39.9735,-83.8072,2018-11-06,8.9,0,0,15.0,10.6,0.0011343089248820031,0.24171400173517593,,USC00335786,"NEW CARLISLE, OH US",39.9317,-84.0329,2018-11-06,10.2,0,0,15.0,10.6,0.0027743881478268606,-1.435246662941703,1.676960664676879,USC00334681,"LONDON FISH HATCHERY, OH US",39.8972,-83.5096,2018-11-06,14.5,0,0,13.9,9.4,0.004262529364001475,1.6230913474402262,3.058338010381929
45504.0,Springfield,Ohio,OH,Clark,39.9408,-83.8343,USC00337935,"SPRINGFIELD WATER TREATMENT PLANT, OH US",39.9735,-83.8072,2018-11-06,8.9,0,0,15.0,10.6,0.0006761433932731549,0.5657876013264173,,USC00335786,"NEW CARLISLE, OH US",39.9317,-84.0329,2018-11-06,10.2,0,0,15.0,10.6,0.002662498975369586,-1.6293717171915882,2.1951593185180056,USC00334681,"LONDON FISH HATCHERY, OH US",39.8972,-83.5096,2018-11-06,14.5,0,0,13.9,9.4,0.0044124892896511714,1.7423005660829343,3.3716722832745223
45341.0,Medway,Ohio,OH,Clark,39.8789,-84.0218,USC00335786,"NEW CARLISLE, OH US",39.9317,-84.0329,2018-11-06,10.2,0,0,15.0,10.6,0.000933440015790014,-0.1598278305072582,,USW00093815,"DAYTON INTERNATIONAL AIRPORT, OH US",39.90638,-84.21853,2018-11-06,3.3,0,0,15.0,7.2,0.002677712402489578,-1.3896094499780345,1.2297816194707762,USC00337935,"SPRINGFIELD WATER TREATMENT PLANT, OH US",39.9735,-83.8072,2018-11-06,8.9,0,0,15.0,10.6,0.0033130286058557865,1.0478891883067953,2.43749863828483
45369.0,South Vienna,Ohio,OH,Clark,39.9473,-83.6157,USC00334681,"LONDON FISH HATCHERY, OH US",39.8972,-83.5096,2018-11-06,14.5,0,0,13.9,9.4,0.0016677758545837209,2.1220912414315922,,USC00337935,"SPRINGFIELD WATER TREATMENT PLANT, OH US",39.9735,-83.8072,2018-11-06,8.9,0,0,15.0,10.6,0.0026023283847844713,-1.393088069899251,3.515179311330843,USC00334979,"MARYSVILLE, OH US",40.19382,-83.26751,2018-11-06,0.3,0,0,14.4,7.2,0.0063355340730437085,0.8222826841237273,2.2153707540229783
45324.0,Fairborn,Ohio,OH,Greene,39.8053,-84.0198,USC00335786,"NEW CARLISLE, OH US",39.9317,-84.0329,2018-11-06,10.2,0,0,15.0,10.6,0.002213064134098052,-0.07930454840855737,,USC00332067,"DAYTON MCD, OH US",39.78118,-84.19035,2018-11-06,12.4,0,0,15.0,10.6,0.002325561638839387,-1.7518671567255135,1.6725626083169562,USC00339361,"XENIA 6 SSE, OH US",39.6041,-83.9072,2018-11-06,15.2,0,0,13.9,11.7,0.003823261232619706,2.7343948097300297,4.486261966455543
45349.0,North Hampton,Ohio,OH,Clark,39.9893,-83.9389,USC00335786,"NEW CARLISLE, OH US",39.9317,-84.0329,2018-11-06,10.2,0,0,15.0,10.6,0.00160995931506915,-2.2446729275157926,,USC00337935,"SPRINGFIELD WATER TREATMENT PLANT, OH US",39.9735,-83.8072,2018-11-06,8.9,0,0,15.0,10.6,0.0017827647073178935,1.7253635579934512,3.970036485509244,USC00336650,"PIQUA WWTP, OH US",40.1311,-84.2344,2018-11-06,6.6,0,0,14.4,6.1,0.004659023619078163,-1.0091217361254219,2.734485294118873
45387.0,Yellow Springs,Ohio,OH,Greene,39.7996,-83.8891,USC00335786,"NEW CARLISLE, OH US",39.9317,-84.0329,2018-11-06,10.2,0,0,15.0,10.6,0.0030044364797147632,-0.695229781208141,,USC00339361,"XENIA 6 SSE, OH US",39.6041,-83.9072,2018-11-06,15.2,0,0,13.9,11.7,0.0034207624616642883,-3.070380326804096,2.3751505455959547,USC00334681,"LONDON FISH HATCHERY, OH US",39.8972,-83.5096,2018-11-06,14.5,0,0,13.9,9.4,0.005362877219935838,1.2454411265719338,4.31582145337603
45319.0,Donnelsville,Ohio,OH,Clark,39.9189,-83.9449,USC00335786,"NEW CARLISLE, OH US",39.9317,-84.0329,2018-11-06,10.2,0,0,15.0,10.6,0.0011988449757457957,-1.3828599940997204,,USC00337935,"SPRINGFIELD WATER TREATMENT PLANT, OH US",39.9735,-83.8072,2018-11-06,8.9,0,0,15.0,10.6,0.002074345868406986,1.0927081551479674,2.475568149247688,USC00339361,"XENIA 6 SSE, OH US",39.6041,-83.9072,2018-11-06,15.2,0,0,13.9,11.7,0.00551752240224137,3.0495808370008755,1.956872681852908
43140.0,London,Ohio,OH,Madison,39.9001,-83.4439,USC00334681,"LONDON FISH HATCHERY, OH US",39.8972,-83.5096,2018-11-06,14.5,0,0,13.9,9.4,0.0008811660910627337,-1.627900609678809,,USC00334979,"MARYSVILLE, OH US",40.19382,-83.26751,2018-11-06,0.3,0,0,14.4,7.2,0.005642140240069628,0.42991974350573686,2.0578203531845456,USC00338794,"WASHINGTON COURT HOUSE, OH US",39.5353,-83.4239,2018-11-06,22.9,0,0,15.0,9.4,0.006372609281260429,3.0993348539443444,2.6694151104386075
43153.0,South Solon,Ohio,OH,Madison,39.7423,-83.597,USC00334681,"LONDON FISH HATCHERY, OH US",39.8972,-83.5096,2018-11-06,14.5,0,0,13.9,9.4,0.0029464673948054847,0.408448712580033,,USC00338794,"WASHINGTON COURT HOUSE, OH US",39.5353,-83.4239,2018-11-06,22.9,0,0,15.0,9.4,0.004297127626754723,2.568506253269381,2.160057540689348,USC00339361,"XENIA 6 SSE, OH US",39.6041,-83.9072,2018-11-06,15.2,0,0,13.9,11.7,0.004814878475328887,-2.0937695732482897,4.662275826517671
43010.0,Catawba,Ohio,OH,Clark,39.9991,-83.6222,USC00334681,"LONDON FISH HATCHERY, OH US",39.8972,-83.5096,2018-11-06,14.5,0,0,13.9,9.4,0.0023308540008285844,2.438138714116711,,USC00337935,"SPRINGFIELD WATER TREATMENT PLANT, OH US",39.9735,-83.8072,2018-11-06,8.9,0,0,15.0,10.6,0.0025139681676535726,-1.7484365702422306,4.186575284358941,USC00334979,"MARYSVILLE, OH US",40.19382,-83.26751,2018-11-06,0.3,0,0,14.4,7.2,0.005828772697812883,0.9463204493969757,2.6947570196392063
45157.0,New Richmond,Ohio,OH,Clermont,38.9537,-84.2379,USW00093812,"CINCINNATI MUNICIPAL AIRPORT LUNKEN FIELD, OH US",39.106,-84.41609,2018-11-06,5.8,0,0,16.1,6.1,0.0035919721045457975,-0.7367164876337801,,USC00333758,"HILLSBORO, OH US",39.2334,-83.6091,2018-11-06,30.0,0,0,15.6,10.6,0.009817275623900504,1.046913651241266,1.7836301388750462,USC00314260,"HOT SPRINGS, NC US",35.89536,-82.8313,2018-11-06,8.4,0,0,20.0,11.7,0.056817288113724065,2.7838804861694735,1.7369668349282075
45103.0,Batavia,Ohio,OH,Clermont,39.0957,-84.1451,USW00093812,"CINCINNATI MUNICIPAL AIRPORT LUNKEN FIELD, OH US",39.106,-84.41609,2018-11-06,5.8,0,0,16.1,6.1,0.0036747936907659553,-1.5203660014450242,,USC00339220,"WEATHER FORECAST OFFICE WILMINGTON, OH US",39.42157,-83.82225,2018-11-06,12.7,0,0,15.0,7.2,0.00716820346471043,0.6525881160779916,2.172954117523016,USC00334770,"LUCASVILLE, OH US",38.8845,-82.9955,2018-11-06,32.5,0,0,17.8,6.7,0.01602449445805446,1.7965819197791097,1.1439938037011181
45102.0,Amelia,Ohio,OH,Clermont,39.0211,-84.2112,USW00093812,"CINCINNATI MUNICIPAL AIRPORT LUNKEN FIELD, OH US",39.106,-84.41609,2018-11-06,5.8,0,0,16.1,6.1,0.0031472316223003947,-1.0794486692556093,,USC00339220,"WEATHER FORECAST OFFICE WILMINGTON, OH US",39.42157,-83.82225,2018-11-06,12.7,0,0,15.0,7.2,0.008747025055415676,0.6429070160189773,1.7223556852745867,USC00334770,"LUCASVILLE, OH US",38.8845,-82.9955,2018-11-06,32.5,0,0,17.8,6.7,0.01667147561145997,1.707616242205025,1.0647092261860478
45122.0,Goshen,Ohio,OH,Clermont,39.2209,-84.1188,USW00093812,"CINCINNATI MUNICIPAL AIRPORT LUNKEN FIELD, OH US",39.106,-84.41609,2018-11-06,5.8,0,0,16.1,6.1,0.004495144848636352,-2.031583758342782,,USC00339220,"WEATHER FORECAST OFFICE WILMINGTON, OH US",39.42157,-83.82225,2018-11-06,12.7,0,0,15.0,7.2,0.005319625003964572,0.8504910307801373,2.8820747891229193,USC00332928,"FRANKLIN, OH US",39.5536,-84.319,2018-11-06,0.0,0,0,15.0,5.0,0.00640395161237772,-0.4342093699675686,1.2847004007477059
45140.0,Loveland,Ohio,OH,Clermont,39.2445,-84.2588,USW00093812,"CINCINNATI MUNICIPAL AIRPORT LUNKEN FIELD, OH US",39.106,-84.41609,2018-11-06,5.8,0,0,16.1,6.1,0.003220597543903603,-2.418850810558563,,USW00053855,"HAMILTON BUTLER CO REGIONAL AIRPORT, OH US",39.36119,-84.52063,2018-11-06,4.1,0,0,16.1,5.6,0.004080702992844396,-1.0468060887261255,1.3720447218324374,USW00053859,"DAYTON WRIGHT BROTHERS AIRPORT, OH US",39.5918,-84.2263,2018-11-06,4.3,0,0,15.6,10.0,0.006077337899794161,0.07198732047767871,1.118793409203804
45244.0,Cincinnati,Ohio,OH,Hamilton,39.1191,-84.351,USW00093812,"CINCINNATI MUNICIPAL AIRPORT LUNKEN FIELD, OH US",39.106,-84.41609,2018-11-06,5.8,0,0,16.1,6.1,0.0009106288322309796,-1.8242308894071115,,USW00053855,"HAMILTON BUTLER CO REGIONAL AIRPORT, OH US",39.36119,-84.52063,2018-11-06,4.1,0,0,16.1,5.6,0.004807350875568366,-0.4962741911109953,1.3279566982961162,USC00339220,"WEATHER FORECAST OFFICE WILMINGTON, OH US",39.42157,-83.82225,2018-11-06,12.7,0,0,15.0,7.2,0.008883110261003246,0.9315082391288693,1.4277824302398645
45245.0,Cincinnati,Ohio,OH,Clermont,39.0688,-84.2802,USW00093812,"CINCINNATI MUNICIPAL AIRPORT LUNKEN FIELD, OH US",39.106,-84.41609,2018-11-06,5.8,0,0,16.1,6.1,0.0019520378460702373,-1.2309817065456472,,USC00332928,"FRANKLIN, OH US",39.5536,-84.319,2018-11-06,0.0,0,0,15.0,5.0,0.008477537291475339,-0.061629555373087126,1.16935215117256,USC00333758,"HILLSBORO, OH US",39.2334,-83.6091,2018-11-06,30.0,0,0,15.6,10.6,0.009526579421757156,1.2607784254511705,1.3224079808242577
45255.0,Cincinnati,Ohio,OH,Hamilton,39.0584,-84.3396,USW00093812,"CINCINNATI MUNICIPAL AIRPORT LUNKEN FIELD, OH US",39.106,-84.41609,2018-11-06,5.8,0,0,16.1,6.1,0.001328185478082724,-0.894606679876731,,USW00053859,"DAYTON WRIGHT BROTHERS AIRPORT, OH US",39.5918,-84.2263,2018-11-06,4.3,0,0,15.6,10.0,0.009434385451251717,0.16223197367769718,1.0568386535544283,USC00333758,"HILLSBORO, OH US",39.2334,-83.6091,2018-11-06,30.0,0,0,15.6,10.6,0.010348766669003688,1.26717713016975,1.104945156492053
45150.0,Milford,Ohio,OH,Clermont,39.1657,-84.233,USW00093812,"CINCINNATI MUNICIPAL AIRPORT LUNKEN FIELD, OH US",39.106,-84.41609,2018-11-06,5.8,0,0,16.1,6.1,0.002688716752180861,-1.9677393051203467,,USW00053855,"HAMILTON BUTLER CO REGIONAL AIRPORT, OH US",39.36119,-84.52063,2018-11-06,4.1,0,0,16.1,5.6,0.005171873178063846,-0.8487761463139121,1.1189631588064346,USC00339220,"WEATHER FORECAST OFFICE WILMINGTON, OH US",39.42157,-83.82225,2018-11-06,12.7,0,0,15.0,7.2,0.007122101727749886,0.8907969461361639,1.739573092450076
45153.0,Moscow,Ohio,OH,Clermont,38.8583,-84.1958,USW00093812,"CINCINNATI MUNICIPAL AIRPORT LUNKEN FIELD, OH US",39.106,-84.41609,2018-11-06,5.8,0,0,16.1,6.1,0.0052556815814093945,-0.6036701922107426,,USC00333758,"HILLSBORO, OH US",39.2334,-83.6091,2018-11-06,30.0,0,0,15.6,10.6,0.010300641775798943,0.878842845730842,1.4825130379415845,USC00314260,"HOT SPRINGS, NC US",35.89536,-82.8313,2018-11-06,8.4,0,0,20.0,11.7,0.05505813572864825,2.783489667011542,1.9046468212807
45162.0,Pleasant Plain,Ohio,OH,Warren,39.2884,-84.0967,USC00339220,"WEATHER FORECAST OFFICE WILMINGTON, OH US",39.42157,-83.82225,2018-11-06,12.7,0,0,15.0,7.2,0.004372690177642731,1.0088631697043018,,USW00093812,"CINCINNATI MUNICIPAL AIRPORT LUNKEN FIELD, OH US",39.106,-84.41609,2018-11-06,5.8,0,0,16.1,6.1,0.005366288915870805,-2.2041054154615347,3.2129685851658367,USC00332928,"FRANKLIN, OH US",39.5536,-84.319,2018-11-06,0.0,0,0,15.0,5.0,0.0055142670717118,-0.5734112581906176,1.6306941572709173
45158.0,Newtonsville,Ohio,OH,Clermont,39.182,-84.0863,USW00093812,"CINCINNATI MUNICIPAL AIRPORT LUNKEN FIELD, OH US",39.106,-84.41609,2018-11-06,5.8,0,0,16.1,6.1,0.00465696772056213,-1.8578087437154394,,USC00339220,"WEATHER FORECAST OFFICE WILMINGTON, OH US",39.42157,-83.82225,2018-11-06,12.7,0,0,15.0,7.2,0.0054955140590398415,0.7047122216668954,2.5625209653823346,USC00332928,"FRANKLIN, OH US",39.5536,-84.319,2018-11-06,0.0,0,0,15.0,5.0,0.007205669168367989,-0.44957426939383444,1.1542864910607298
45160.0,Owensville,Ohio,OH,Clermont,39.1232,-84.135,USW00093812,"CINCINNATI MUNICIPAL AIRPORT LUNKEN FIELD, OH US",39.106,-84.41609,2018-11-06,5.8,0,0,16.1,6.1,0.003818268521012029,-1.6479509362594773,,USC00339220,"WEATHER FORECAST OFFICE WILMINGTON, OH US",39.42157,-83.82225,2018-11-06,12.7,0,0,15.0,7.2,0.0067063086375150896,0.6799611803157959,2.3279121165752734,USC00332485,"EATON, OH US",39.7328,-84.6353,2018-11-06,9.7,0,0,15.0,9.4,0.012597107823747625,-0.5622268286667506,1.2421880089825463
45112.0,Chilo,Ohio,OH,Clermont,38.7926,-84.1382,USW00093812,"CINCINNATI MUNICIPAL AIRPORT LUNKEN FIELD, OH US",39.106,-84.41609,2018-11-06,5.8,0,0,16.1,6.1,0.006644289116085614,-0.6021784101852485,,USC00333758,"HILLSBORO, OH US",39.2334,-83.6091,2018-11-06,30.0,0,0,15.6,10.6,0.010520032223887824,0.7476622227067826,1.3498406328920312,USC00337857,"SOUTH POINT, OH US",38.42375,-82.59307,2018-11-06,12.7,0,0,17.8,10.6,0.022033932234145612,1.858848624811596,1.1111864021048135
45147.0,Miamiville,Ohio,OH,Clermont,39.2137,-84.3002,USW00093812,"CINCINNATI MUNICIPAL AIRPORT LUNKEN FIELD, OH US",39.106,-84.41609,2018-11-06,5.8,0,0,16.1,6.1,0.0024480707308938746,-2.445615101328576,,USW00053855,"HAMILTON BUTLER CO REGIONAL AIRPORT, OH US",39.36119,-84.52063,2018-11-06,4.1,0,0,16.1,5.6,0.00393610734202396,-0.8567295640991092,1.5888855372294666,USC00339220,"WEATHER FORECAST OFFICE WILMINGTON, OH US",39.42157,-83.82225,2018-11-06,12.7,0,0,15.0,7.2,0.007403438277671154,1.0560176829841923,1.9127472470833013
45159.0,New Vienna,Ohio,OH,Clinton,39.3321,-83.6882,USC00333758,"HILLSBORO, OH US",39.2334,-83.6091,2018-11-06,30.0,0,0,15.6,10.6,0.002027159618909856,2.5859267536280166,,USW00013841,"WILMINGTON AIR PARK, OH US",39.43084,-83.777,2018-11-06,13.5,0,0,15.0,7.2,0.002098798270019312,-0.6069573412438228,3.1928840948718396,USC00338794,"WASHINGTON COURT HOUSE, OH US",39.5353,-83.4239,2018-11-06,22.9,0,0,15.0,9.4,0.0050270606078134305,0.7862291400252314,1.3931864812690542
45169.0,Sabina,Ohio,OH,Clinton,39.49,-83.6503,USW00013841,"WILMINGTON AIR PARK, OH US",39.43084,-83.777,2018-11-06,13.5,0,0,15.0,7.2,0.001995236108388637,-2.1140211778208973,,USC00338794,"WASHINGTON COURT HOUSE, OH US",39.5353,-83.4239,2018-11-06,22.9,0,0,15.0,9.4,0.0031493187157737917,1.3157757102896441,3.429796888110541,USC00339361,"XENIA 6 SSE, OH US",39.6041,-83.9072,2018-11-06,15.2,0,0,13.9,11.7,0.00398992878810713,-1.0467969255391818,2.362572635828826
45113.0,Clarksville,Ohio,OH,Clinton,39.4042,-83.9594,USC00339220,"WEATHER FORECAST OFFICE WILMINGTON, OH US",39.42157,-83.82225,2018-11-06,12.7,0,0,15.0,7.2,0.00187404874315903,1.4075531731962767,,USC00339361,"XENIA 6 SSE, OH US",39.6041,-83.9072,2018-11-06,15.2,0,0,13.9,11.7,0.0035590233256977376,0.19853118902513003,1.2090219841711467,USC00332928,"FRANKLIN, OH US",39.5536,-84.319,2018-11-06,0.0,0,0,15.0,5.0,0.005501516426678023,-1.075016582295431,1.273547771320561
45177.0,Wilmington,Ohio,OH,Clinton,39.4488,-83.8417,USC00339220,"WEATHER FORECAST OFFICE WILMINGTON, OH US",39.42157,-83.82225,2018-11-06,12.7,0,0,15.0,7.2,0.0005427765950680837,2.63735728317524,,USC00339219,"WILMINGTON 3 N, OH US",39.49118,-83.82005,2018-11-06,21.8,0,0,15.0,9.4,0.0007951090074624808,0.3755128670321937,2.261844416143046,USW00053859,"DAYTON WRIGHT BROTHERS AIRPORT, OH US",39.5918,-84.2263,2018-11-06,4.3,0,0,15.6,10.0,0.005748138564453254,-1.1195174333488387,1.4950303003810324
45166.0,Reesville,Ohio,OH,Clinton,39.4805,-83.6772,USW00013841,"WILMINGTON AIR PARK, OH US",39.43084,-83.777,2018-11-06,13.5,0,0,15.0,7.2,0.001599994653414824,-2.142710802112128,,USC00338794,"WASHINGTON COURT HOUSE, OH US",39.5353,-83.4239,2018-11-06,22.9,0,0,15.0,9.4,0.0035424578160992547,1.2960045251820465,3.438715327294174,USC00339361,"XENIA 6 SSE, OH US",39.6041,-83.9072,2018-11-06,15.2,0,0,13.9,11.7,0.0037731178957632087,-0.9608999091061186,2.256904434288165
45146.0,Martinsville,Ohio,OH,Clinton,39.3127,-83.8005,USC00339220,"WEATHER FORECAST OFFICE WILMINGTON, OH US",39.42157,-83.82225,2018-11-06,12.7,0,0,15.0,7.2,0.0019226695334548115,-0.15311789379649413,,USC00333758,"HILLSBORO, OH US",39.2334,-83.6091,2018-11-06,30.0,0,0,15.6,10.6,0.002933129866647809,2.061144952237244,2.214262846033738,USC00338794,"WASHINGTON COURT HOUSE, OH US",39.5353,-83.4239,2018-11-06,22.9,0,0,15.0,9.4,0.006393225811203607,0.915564500037222,1.1455804522000217
45068.0,Waynesville,Ohio,OH,Warren,39.5285,-84.0815,USW00053859,"DAYTON WRIGHT BROTHERS AIRPORT, OH US",39.5918,-84.2263,2018-11-06,4.3,0,0,15.6,10.0,0.0022398181628630553,-1.0541685022781397,,USC00339361,"XENIA 6 SSE, OH US",39.6041,-83.9072,2018-11-06,15.2,0,0,13.9,11.7,0.002690836755934654,1.0573295520216166,2.1114980542997563,USC00333758,"HILLSBORO, OH US",39.2334,-83.6091,2018-11-06,30.0,0,0,15.6,10.6,0.008193908792287425,2.2478895180099543,1.1905599659883377
